route_station_id,route_id,path_id,path_type,direction,seq,sid1,lat,lon,sname,name_e,sid2
0,1-1,29,main,go,0,4769,13.8622273865162,100.569130253263,ตรงข้ามหนังสือพิมพ์เดลินิวส์,Dailynews Newspaper (Opposite),3905
0,1-1,29,main,go,1,3905,13.810159635,100.55919672,มหาวิทยาลัยเซนต์จอห์น,St. John University,3916
0,1-1,29,main,go,2,3916,13.79704684,100.55099104,แยกกำแพงเพชร,Junction Kamphaeng Phet,1999
0,1-1,29,main,go,4,1999,13.7952013298592,100.538635292843,พระราม 6 ซอย 43 แยกประดิพัทธ์,Rama 6 Soi 43,1791
0,1-1,29,main,go,5,1791,13.7557627594802,100.524396232176,อุรุพงษ์,Urupong,3073
0,1-1,29,main,go,6,3073,13.74122718,100.5298557,จุฬาฯ หอพักนิสิต,Chulalongkorn Student Dormitory,4786
0,1-1,29,main,go,7,4786,13.7361227,100.52910695,จุฬาลงกรณ์มหาวิทยาลัย (คณะนิติศาสตร์),Chulalongkorn University (Facalty of Law),4817
0,1-1,29,main,go,8,4817,13.7359864927281,100.529358157824,จุฬาลงกรณ์มหาวิทยาลัย (คณะวิทยาศาสตร์),Chulalongkorn University (Faculty of Science),4055
0,1-1,29,main,go,9,4055,13.7342936366683,100.525559137824,จุฬาลงกรณ์ 11,Chulalongkorn 11,4596
0,1-1,29,main,go,11,4596,13.738683035,100.5170285,สถานีรถไฟหัวลำโพง(ฝั่งรองเมือง),Train Station Hua Lamphong,4749
1,1-1,29,main,back,0,4749,13.73965572,100.51629654,สถานีรถไฟหัวลำโพง,Bangkok Hua Lamphong Railway Station,4596
1,1-1,29,main,back,2,4596,13.738683035,100.5170285,สถานีรถไฟหัวลำโพง(ฝั่งรองเมือง),Train Station Hua Lamphong,4053
1,1-1,29,main,back,3,4053,13.735598029,100.52232204,สะพานเหลือง,Yellow Bridge,3070
1,1-1,29,main,back,4,3070,13.73417265,100.5290998,ป้ายรถประจำทาง สามย่าน,Sam Yan bus stop,3071
1,1-1,29,main,back,5,3071,13.73419817,100.5288353,สามย่านมิตรทาวน์,Sam Yan Mit Town,2717
1,1-1,29,main,back,6,2717,13.75477089,100.5327241,กรมปศุสัตว์,Department of Livestock Development,3441
1,1-1,29,main,back,7,3441,13.77097878,100.5296709,ซอยสวนเงิน,Soi Suan Ngoen,1995
1,1-1,29,main,back,8,1995,13.776942031,100.53204297,ซอยศาสนา,Soi Satsana,4318
1,1-1,29,main,back,9,4318,13.776556658,100.53162414,กรมโยธาธิการและผังเมือง,Department of Public Works and Town & Country Planning,1998
1,1-1,29,main,back,10,1998,13.784131049,100.53470264,โรงเรียนสามเสน,Samsen Wittayarai School,1999
1,1-1,29,main,back,11,1999,13.7952013298592,100.538635292843,พระราม 6 ซอย 43 แยกประดิพัทธ์,Rama 6 Soi 43,4180
1,1-1,29,main,back,12,4180,13.8142524283871,100.558848506069,สวนวชิรเบญจทัศสวนรถไฟ,"Wachira Ben Park, Railway",3028
1,1-1,29,main,back,13,3028,13.83909727,100.5580195,ซอยวิภาวดี 42 ตรงข้ามวัดเสมียน,Vibhavadi Soi 42,3042
1,1-1,29,main,back,14,3042,13.83959843,100.5574017,วัดเสมียนนารี,Wat Samian Nari,899
1,1-1,29,main,back,15,899,13.8790300353867,100.578287891965,สถาบันวิจัยจุฬาภรณ์,Chulabhorn Research Institute,5546
1,1-1,29,main,back,16,5546,13.87908499,100.5783517,สถาบันวิจัยจุฬาภรณ์,Chulaporn Research Institute,901
1,1-1,29,main,back,17,901,13.8855248054658,100.581972174561,ไอทีสแควร์,IT Square,5545
1,1-1,29,main,back,18,5545,13.88546171,100.5818653,ไอทีสแควร์หลักสี่,IT Square Lak Si,891
2,1-10,95,main,go,0,3881,13.87413505,100.5975955,สถานีตำรวจบางเขน,Police Station Bangkhen,1624
2,1-10,95,main,go,1,1624,13.8550587248138,100.631694151632,ซอยมัยลาภ(รามอินทราซอย16),Soi Maiyalap,1620
2,1-10,95,main,go,2,1620,13.8451770650935,100.650010285229,ซอยนวลจันทร์,Soi Nuanchan,3210
2,1-10,95,main,go,3,3210,13.83040433,100.6588286,ซอยนวมินทร์ 157,Soi Nawamin 157,3232
2,1-10,95,main,go,4,3232,13.83013164,100.6589358,ซอยนวมินทร์ 92,Soi Nawamin 92,3200
2,1-10,95,main,go,5,3200,13.8024713,100.6478804,ตรงข้ามวัดบางเตย,Opposite Bang Toei Temple,5325
2,1-10,95,main,go,6,5325,13.802929725,100.64795573,วัดบางเตย,Wat Bang Toei,3196
2,1-10,95,main,go,7,3196,13.79421562,100.6516165,ตลาดอินทรารักษ์(ซอยนวมินทร์ 75),Inthrarak Market (Nawamin 75),3188
2,1-10,95,main,go,8,3188,13.77416356,100.6457943,ตรงข้ามสำนักงานการเคหะแห่งชาติ,National Housing Authority (Opposite),3252
2,1-10,95,main,go,9,3252,13.77424436,100.6459944,การเคหะแห่งชาติคลองจั่น,Klong chan Housing,3187
2,1-10,95,main,go,10,3187,13.77162255,100.6471474,โรงเรียนบ้านบางกะปิ,Ban Bang Kapi School,3253
2,1-10,95,main,go,11,3253,13.7715685,100.6474151,ตรงข้ามโรงเรียนบ้านบางกะปิ,Ban Bang Kapi School (Opposite),2844
2,1-10,95,main,go,12,2844,13.75844927,100.6458445,ซอยโรงงาน ปั้มน้ำมัน ป.ต.ท.,Soi Rongngan,2840
2,1-10,95,main,go,13,2840,13.75548404,100.6458304,บริษัทกรีนสปอร์ต,Green Spot Co. Ltd.,2845
2,1-10,95,main,go,14,2845,13.75525488,100.6460649,โรงแรมเดอะแกรนด์โฟร์วิงส์,The Grand Four Wing Hotel,2846
2,1-10,95,main,go,15,2846,13.75282892,100.6456323,แยกกรุงเทพกรีฑา หมู่บ้านนักกีฬา,Krung Thep Kritha Intersection,2839
3,1-10,95,main,back,0,2838,13.74518638,100.643236,โรงพยาบาลสมิติเวชศรีนครินทร์,Samitivej Srinakarin Hospital,2848
3,1-10,95,main,back,1,2848,13.74528698,100.643575,ตรงข้ามโรงพยาบาลสมิติเวชศรีนครินทร์,Opposite Samitivej Srinakarin Hospital,2839
3,1-10,95,main,back,2,2839,13.75152849,100.6449908,แยกกรุงเทพกรีฑา,Krung Thep Kritha Intersection,2846
3,1-10,95,main,back,3,2846,13.75282892,100.6456323,แยกกรุงเทพกรีฑา หมู่บ้านนักกีฬา,Krung Thep Kritha Intersection,2840
3,1-10,95,main,back,4,2840,13.75548404,100.6458304,บริษัทกรีนสปอร์ต,Green Spot Co. Ltd.,2845
3,1-10,95,main,back,5,2845,13.75525488,100.6460649,โรงแรมเดอะแกรนด์โฟร์วิงส์,The Grand Four Wing Hotel,2840
3,1-10,95,main,back,6,2840,13.75548404,100.6458304,บริษัทกรีนสปอร์ต,Green Spot Co. Ltd.,2844
3,1-10,95,main,back,7,2844,13.75844927,100.6458445,ซอยโรงงาน ปั้มน้ำมัน ป.ต.ท.,Soi Rongngan,2843
3,1-10,95,main,back,8,2843,13.76103685,100.6456368,ฝั่งหมู่บ้านลำสะลี ศรีนครินทร์ ขาออก,"Muban Lam Salee Srinakarin Side, Outbound",3256
3,1-10,95,main,back,9,3256,13.76605591,100.6465088,ตรงข้ามตลาดบางกะปิ,Opposite Bang Kapi Market,3189
3,1-10,95,main,back,10,3189,13.77550575,100.6450947,ซอยนวมินทร์ 17,Nawamin 17,3251
3,1-10,95,main,back,11,3251,13.77558079,100.64531,ซอยนวมินทร์ 10,Soi Nawamin 10,3189
3,1-10,95,main,back,12,3189,13.77550575,100.6450947,ซอยนวมินทร์ 17,Nawamin 17,3251
3,1-10,95,main,back,13,3251,13.77558079,100.64531,ซอยนวมินทร์ 10,Soi Nawamin 10,3192
3,1-10,95,main,back,14,3192,13.78583781,100.6485938,หมู่บ้านวังทอง,Wang Thong Village,3246
3,1-10,95,main,back,15,3246,13.78573914,100.6488146,ตรงข้ามหมู่บ้านวังทอง,Wang Thong village (Opposite),3195
3,1-10,95,main,back,16,3195,13.79282944,100.652247,โรงเรียนอนุบาลลูกหนู,Children's Kindergarten,4232
3,1-10,95,main,back,17,4232,13.793160318,100.65234091,ตรงข้ามโรงเรียนอนุบาลลูกหนู,Opposite the biceps kindergarten,3198
3,1-10,95,main,back,18,3198,13.79911041,100.6493812,หมู่บ้านสินธานี 1,Sin Thani Village 1,1618
3,1-10,95,main,back,19,1618,13.8414963440834,100.65675371021,ตรงข้ามซอยรามอินทรา 69,Soi Ramintra 69 (Opposite),1609
3,1-10,95,main,back,20,1609,13.8463790162283,100.648459881632,ซอยรามอินทรา 65,Soi Raminthra 65,1596
3,1-10,95,main,back,21,1596,13.8725359230909,100.600036336403,มหาวิทยาลัยเกริก,Krirk University,1633
3,1-10,95,main,back,22,1633,13.8724008755068,100.599542443263,ตรงข้ามมหาวิทยาลัยเกริก,Krirk University (Opposite),3881
6,1-12E,107E,main,go,0,3914,13.869471736,100.5924624,อู่บางเขน,Bus Depot Bangkhen,3884
6,1-12E,107E,main,go,1,3884,13.86607002,100.5912704,ป้ายรถประจำทาง ธนาคารอาคารสงเคราะห์ 3,Bus stopGovernment Housing Bank 3,3811
6,1-12E,107E,main,go,2,3811,13.81540659,100.5614695,ตรงข้ามเซ็นทรัลลาดพร้าว,Central Ladprao,3822
6,1-12E,107E,main,go,3,3822,13.8162359,100.5614801,เซ็นทรัลลาดพร้าว,Central Ladprao,4229
6,1-12E,107E,main,go,4,4229,13.8072512822493,100.559590557404,อาคารซันทาวเวอร์,Sun Tower,3897
6,1-12E,107E,main,go,5,3897,13.7707936,100.5514595,โรงพยาบาลทหารผ่านศึก,Veterans General Hospital,3743
6,1-12E,107E,main,go,6,3743,13.71579218,100.5653857,อู่คลองเตย,Bus Depot Khlong Toei,3741
6,1-12E,107E,main,go,7,3741,13.7191489,100.5663791,ตรงข้ามร้านอาหารสรทอง,Sonthong Restaurent,3739
7,1-12E,107E,main,back,0,2461,13.71724081,100.5593171,ตรงข้ามสโมสรการท่าเรือ,Port Authority of Thailand Clubhouse (Opposite),1838
7,1-12E,107E,main,back,1,1838,13.716422198,100.55731988,บริษัท ล็อกซเล่ย์,LOXLEY Company,4192
7,1-12E,107E,main,back,2,4192,13.7716924785902,100.552662247924,สวนป่าวิภาวดี,Vibhavadi Forest Park,780
7,1-12E,107E,main,back,3,780,13.7883561210625,100.561669496316,แยกสุทธิสาร(ดับเพลิง),Sutthisan Intersection (Fire Station),4186
7,1-12E,107E,main,back,4,4186,13.802132461,100.56078662,ธนาคารกรุงเทพ วิภาวดีรังสิต,Bangkok BankVibhavadi Rangsit,3825
8,1-13,126,main,go,0,4818,13.8914391755152,100.564704947614,ศูนย์ราชการแจ้งวัฒนะ(อาคารA),Government Complex (A Building),1591
8,1-13,126,main,go,1,1591,13.888455325,100.57436668,ตรงข้ามTOTสำนักงานใหญ่,TOT Headquarters (Opposite),1638
8,1-13,126,main,go,2,1638,13.8879068636792,100.574593488455,TOTสำนักงานใหญ่,TOT Headquarters,2394
8,1-13,126,main,go,3,2394,13.82532691,100.5711122,สถานีตำรวจพหลโยธิน,Police Station (Phahon Yothin),2379
8,1-13,126,main,go,4,2379,13.824048794,100.57315266,ตรงข้ามรัชดาหินอ่อน,Ratchada Marble Co. Ltd. (Opposite),2393
8,1-13,126,main,go,5,2393,13.82372371,100.5730492,รัชดาหินอ่อน,Ratchada Marble Co. Ltd.,4243
8,1-13,126,main,go,6,4243,13.8209626893878,100.57507718021,ซอยเสือใหญ่,Soi Suea Yai,3534
8,1-13,126,main,go,7,3534,13.80277526,100.5797941,สถานีดับเพลิงลาดพร้าว,Lat Phrao Fire Station,3577
8,1-13,126,main,go,8,3577,13.78825308,100.6052537,ซอยลาดพร้าว 80,Lat Phrao Soi 80,5396
8,1-13,126,main,go,9,5396,13.7814246020454,100.607980769209,ร้านอุดมเฟอร์นิเจอร์,Udom Furniture Store,5379
8,1-13,126,main,go,10,5379,13.7794521021702,100.607754493807,หมู่บ้านบ้านกลางเมือง,Ban Klang Meuang Village,5365
8,1-13,126,main,go,11,5365,13.7764670772859,100.606720324438,ซอยประดิษฐ์มนูธรรม 3,Soi Pradit Manutham 3,1709
8,1-13,126,main,go,14,1709,13.7718842941521,100.607027946613,เดอวิลเลจอินทาวส์,De Village in Town,4016
8,1-13,126,main,go,15,4016,13.7519547196396,100.610313932386,ตรงข้ามเดอะมอลล์รามคำแหง,Opposite The Mall Ramkhamhaeng,4083
9,1-13,126,main,back,0,4019,13.7440827604628,100.602408481088,ตรงข้ามการไฟฟ้านครหลวงเขตบางกะปิ,Metropolitan Electricity Authority Bang Kapi,1335
9,1-13,126,main,back,2,1335,13.76063212,100.6113021,ชุมชนรุ่งมณีพัฒนา,Rungmanee Pattana Community,1717
9,1-13,126,main,back,3,1717,13.77024807,100.6043528,โชว์รูมมอเตอร์เวย์,Motorway Showroom,3576
9,1-13,126,main,back,4,3576,13.78701318,100.6074845,ตรงข้ามซอยลาดพร้าว 71,Lat Phrao Soi71 (Opposite),3538
9,1-13,126,main,back,5,3538,13.79799291,100.588323,ตรงข้ามโรงเรียนพิบูลย์อุปถัมภ์,Phibool Uppatham School (Opposite),2663
9,1-13,126,main,back,6,2663,13.80559424,100.5750901,แยกห้วยขวาง,Huai Khwang Intersection,2390
9,1-13,126,main,back,7,2390,13.81816956,100.5753374,ตรงข้ามมหาวิทยาลัยราชภัฏจันทรเกษม,Chandrakasem Rajabhat University (opposite),4244
9,1-13,126,main,back,8,4244,13.8181135874357,100.575700392386,มหาวิทยาลัยราชภัฏจันทรเกษม,Chandrakasem Rajabhat University,2391
9,1-13,126,main,back,9,2391,13.82160173,100.5744248,ตรงข้ามซอยเสือใหญ่,Soi Suea Yai (Opposite),4243
9,1-13,126,main,back,10,4243,13.8209626893878,100.57507718021,ซอยเสือใหญ่,Soi Suea Yai,2379
9,1-13,126,main,back,11,2379,13.824048794,100.57315266,ตรงข้ามรัชดาหินอ่อน,Ratchada Marble Co. Ltd. (Opposite),2393
9,1-13,126,main,back,12,2393,13.82372371,100.5730492,รัชดาหินอ่อน,Ratchada Marble Co. Ltd.,3913
9,1-13,126,main,back,13,3913,13.8650403693978,100.590319945439,ซอยพหลโยธิน 49/2,Soi Phahonyothin 49/2,1591
9,1-13,126,main,back,14,1591,13.888455325,100.57436668,ตรงข้ามTOTสำนักงานใหญ่,TOT Headquarters (Opposite),1638
10,1-14E,129E,main,go,0,3883,13.86867548,100.5927775,ตรงข้ามอู่บางเขน,Bus Depot Bangkhen (Opposite),4764
10,1-14E,129E,main,go,1,4764,13.8686118462799,100.592430315649,หน้าอู่บางเขน,Bus Depot Bangkhen,3111
10,1-14E,129E,main,go,2,3111,13.85631023,100.5851877,โรงเรียนบางบัว,Bangbua School,3806
10,1-14E,129E,main,go,3,3806,13.82857088,100.5691724,ตรงข้ามเมเจอร์รัชโยธิน,Major Ratchayothin,3350
10,1-14E,129E,main,go,4,3350,13.7894592,100.5625272,แยกสุทธิสาร ฝั่งอินทามระ ขาออก,"Sutthisan junction, Inthamara departure",780
10,1-14E,129E,main,go,5,780,13.7883561210625,100.561669496316,แยกสุทธิสาร(ดับเพลิง),Sutthisan Intersection (Fire Station),3896
10,1-14E,129E,main,go,6,3896,13.77716777,100.5558239,โรงเรียนสุรศักดิ์มนตรี,Surasakmontri School,3727
10,1-14E,129E,main,go,8,3727,13.67277407,100.6064121,แยกบางนา(ขึ้นทางด่วน),Bangna Intersection (To Expressway),3747
10,1-14E,129E,main,go,9,3747,13.6726127,100.6066595,แยกบางนา(ขาออกป้ายที่2),Bangna Intersection (Outbound Stop.2),3748
10,1-14E,129E,main,go,10,3748,13.67082762,100.6059758,แยกบางนา(ลงทางด่วน),Bangna Intersection (Exit Expressway),3722
10,1-14E,129E,main,go,11,3722,13.63955232,100.5928258,ปู่เจ้า ตรงข้ามบิ๊กซีสำโรง(ตรงข้ามบิ๊กซีจัมโบอู่สำโรงเดิม),Pu Chao,3757
10,1-14E,129E,main,go,12,3757,13.64007335,100.593329,บิ๊กซีสำโรง(บิ๊กซีจัมโบ้)(อู่สำโรงเก่า),ฺBig C Samrong,3759
11,1-14E,129E,main,back,0,3720,13.63040154,100.5888625,ตรงข้ามวัดไตร พิพิธภัณฑ์ช้างเอราวัณ,Wat Trai (Opposite),3759
11,1-14E,129E,main,back,1,3759,13.62996911,100.589109,พิพิธภัณฑ์ช้างเอราวัณ,Erawan Elephant Museum,3720
11,1-14E,129E,main,back,2,3720,13.63040154,100.5888625,ตรงข้ามวัดไตร พิพิธภัณฑ์ช้างเอราวัณ,Wat Trai (Opposite),3759
11,1-14E,129E,main,back,3,3759,13.62996911,100.589109,พิพิธภัณฑ์ช้างเอราวัณ,Erawan Elephant Museum,3727
11,1-14E,129E,main,back,4,3727,13.67277407,100.6064121,แยกบางนา(ขึ้นทางด่วน),Bangna Intersection (To Expressway),3747
11,1-14E,129E,main,back,5,3747,13.6726127,100.6066595,แยกบางนา(ขาออกป้ายที่2),Bangna Intersection (Outbound Stop.2),1838
11,1-14E,129E,main,back,6,1838,13.716422198,100.55731988,บริษัท ล็อกซเล่ย์,LOXLEY Company,780
11,1-14E,129E,main,back,7,780,13.7883561210625,100.561669496316,แยกสุทธิสาร(ดับเพลิง),Sutthisan Intersection (Fire Station),3380
11,1-14E,129E,main,back,8,3380,13.78919864,100.5608093,หลังแยกสุทธิสาร ฝั่งอินทามระ ขาเข้า,"After the Sutthisan intersection, Inthamara inbound",3902
12,1-15,150,main,go,0,3851,13.913853,100.4955066,ท่าเรือปากเกร็ด,Pak Kret Port,4893
12,1-15,150,main,go,1,4893,13.9044092687405,100.528948736479,ตรงข้ามเซ็นทรัลแจ้งวัฒนะ,Central Chaengwattana (Opposite),1591
12,1-15,150,main,go,2,1591,13.888455325,100.57436668,ตรงข้ามTOTสำนักงานใหญ่,TOT Headquarters (Opposite),1638
12,1-15,150,main,go,3,1638,13.8879068636792,100.574593488455,TOTสำนักงานใหญ่,TOT Headquarters,1637
12,1-15,150,main,go,4,1637,13.882225715,100.58483303,ตรงข้ามธนาคารไทยพาณิชย์แจ้งวัฒนะ,SCB (Chaeng Watthana) (Opposite),1596
12,1-15,150,main,go,5,1596,13.8725359230909,100.600036336403,มหาวิทยาลัยเกริก,Krirk University,1633
12,1-15,150,main,go,6,1633,13.8724008755068,100.599542443263,ตรงข้ามมหาวิทยาลัยเกริก,Krirk University (Opposite),1631
12,1-15,150,main,go,7,1631,13.8696597469996,100.604660308912,ศูนย์พัฒนากีฬากองทัพบก สนามกอล์,RTA Sports Center (Golf Court),1601
12,1-15,150,main,go,8,1601,13.8653483565035,100.613329191088,แยกลาดปลาเค้า(รามอินทรา15),Lat Plakhao Intersection,1603
12,1-15,150,main,go,9,1603,13.860389155182,100.622566642633,หมู่บ้านเกาหลี,Korean Village,4675
12,1-15,150,main,go,11,4675,13.8283833102521,100.675075841682,แยกถนนเลียบคลองสอง,Khlong Song Intersection,376
12,1-15,150,main,go,12,376,13.8250115605865,100.676357306316,ตรงข้ามแฟชั่นไอส์แลนด์,Fashion Island (Opposite),4271
12,1-15,150,main,go,13,4271,13.8247581152508,100.677359008492,แฟชั่นไอส์แลนด์,Fashion Island,3227
12,1-15,150,main,go,14,3227,13.81598577,100.6864397,โรงพยาบาลนพรัตน์,Noppharat Hospital,1261
12,1-15,150,main,go,15,1261,13.812614653,100.69157308,วิทยาลัยทักษิณา(ไทยสุริยะเก่า),Thaksina Business Technological College (Thai Suriya),2016
13,1-15,150,main,back,0,4140,13.813025527,100.72820742,ตลาดมีนบุรี(ตลาดสด),Minburi Market (Fresh Market),4670
13,1-15,150,main,back,1,4670,13.8123822220796,100.725664522386,ตลาดเก่ามีนบุรี,Minburi old market,4672
13,1-15,150,main,back,2,4672,13.8127209671307,100.725504868492,จตุจักร 2 มีนบุรี,Chatuchak 2 Minburi,2020
13,1-15,150,main,back,3,2020,13.8128922337811,100.71417234042,รร.เศรษฐบุตรบำเพ็ญ,Setthabut Bamphen School,2032
13,1-15,150,main,back,4,2032,13.8125551254748,100.713722924351,ตรงข้าม รร.เศรษฐบุตรบำเพ็ญ,Setthabut Bamphen School (Opposite),3227
13,1-15,150,main,back,5,3227,13.81598577,100.6864397,โรงพยาบาลนพรัตน์,Noppharat Hospital,4270
13,1-15,150,main,back,6,4270,13.8312374601136,100.670463794104,ซอยรามอินทรา 89 เยื้องปั้มเอสโซ่,Ram Intra Soi 89,1621
13,1-15,150,main,back,7,1621,13.8468328100286,100.64692799021,ปั้มน้ำมันบางจาก กม.6 (รามอินทรา),Bangchak Station Km 6,1608
13,1-15,150,main,back,8,1608,13.8518601784112,100.638374398245,วัชรพล(กม.5),Watchara Phon (Km.5),3881
13,1-15,150,main,back,10,3881,13.87413505,100.5975955,สถานีตำรวจบางเขน,Police Station Bangkhen,1591
13,1-15,150,main,back,11,1591,13.888455325,100.57436668,ตรงข้ามTOTสำนักงานใหญ่,TOT Headquarters (Opposite),4893
13,1-15,150,main,back,12,4893,13.9044092687405,100.528948736479,ตรงข้ามเซ็นทรัลแจ้งวัฒนะ,Central Chaengwattana (Opposite),2006
13,1-15,150,main,back,13,2006,13.9054932284576,100.524213742633,ซอยหมู่บ้านสี่ไชยทอง,Soi Muban Srichaithong,1588
13,1-15,150,main,back,14,1588,13.9066587968451,100.515023181224,ตรงข้ามบิ๊กซีแจ้งวัฒนะ ,Big C Changwattana (Opposite),1641
13,1-15,150,main,back,15,1641,13.9063454499371,100.514877372559,บิ๊กซืแจ้งวัฒนะ,Big C Chaengwatthana,3776
13,1-15,150,main,back,16,3776,13.91084657,100.4987859,ซอยบุญศรี ตรงข้ามโรงพยาบาลวิภาราม,Soi Bunsiri  Vibharam Hospital (Opposite),5461
14,1-16,185,main,go,0,3140,13.92237483,100.6244941,แยก คปอ.,Kor Por Or Intersection,3120
14,1-16,185,main,go,1,3120,13.89703526,100.6092132,ตลาดยิ่งเจริญ,Ying Charoen Market,4242
14,1-16,185,main,go,2,4242,13.82632373,100.56988567,ตรงข้ามสถานีตำรวจพหลโยธิน,Police Station Phaholyothin (Opposite),2379
14,1-16,185,main,go,3,2379,13.824048794,100.57315266,ตรงข้ามรัชดาหินอ่อน,Ratchada Marble Co. Ltd. (Opposite),2393
14,1-16,185,main,go,4,2393,13.82372371,100.5730492,รัชดาหินอ่อน,Ratchada Marble Co. Ltd.,4243
14,1-16,185,main,go,5,4243,13.8209626893878,100.57507718021,ซอยเสือใหญ่,Soi Suea Yai,2660
14,1-16,185,main,go,6,2660,13.79093088,100.5740771,สถานีตำรวจสุทธิสาร,Police Office Sutthisan,2651
14,1-16,185,main,go,7,2651,13.76162624,100.5665387,สถานทูตจีน,Embassy of China,2672
15,1-16,185,main,back,0,2651,13.76162624,100.5665387,สถานทูตจีน,Embassy of China,2672
15,1-16,185,main,back,1,2672,13.76167179,100.5669605,ตรงข้ามสถานทูตจีน,Embassy of China (Opposite),2654
15,1-16,185,main,back,2,2654,13.77236757,100.5731688,ตรงข้าม รร.เตรียมอุดมฯ รัชดา,Triamudomsuksapattanakarn Ratchada School,2390
15,1-16,185,main,back,3,2390,13.81816956,100.5753374,ตรงข้ามมหาวิทยาลัยราชภัฏจันทรเกษม,Chandrakasem Rajabhat University (opposite),4244
15,1-16,185,main,back,4,4244,13.8181135874357,100.575700392386,มหาวิทยาลัยราชภัฏจันทรเกษม,Chandrakasem Rajabhat University,2379
15,1-16,185,main,back,5,2379,13.824048794,100.57315266,ตรงข้ามรัชดาหินอ่อน,Ratchada Marble Co. Ltd. (Opposite),2393
15,1-16,185,main,back,6,2393,13.82372371,100.5730492,รัชดาหินอ่อน,Ratchada Marble Co. Ltd.,3915
15,1-16,185,main,back,7,3915,13.829182542,100.56406112,ตึกเอสซีบี ซอยรัชดาภิเษก 46,SCB Building,3028
15,1-16,185,main,back,8,3028,13.83909727,100.5580195,ซอยวิภาวดี 42 ตรงข้ามวัดเสมียน,Vibhavadi Soi 42,3042
15,1-16,185,main,back,9,3042,13.83959843,100.5574017,วัดเสมียนนารี,Wat Samian Nari,4177
15,1-16,185,main,back,10,4177,13.8425187894211,100.559154206947,ตรงข้ามสถานีวัดเสมียนนารี,Opposite Samian Nari Temple Station,3112
15,1-16,185,main,back,11,3112,13.87799722,100.5979631,ตรงข้ามเทสโก้โลตัสพหลโยธิน,Tesco Lotus Phahon Yothin (Opposite),3119
15,1-16,185,main,back,12,3119,13.89344547,100.6071104,ตลาดไทยณรงค์,Thai Narong Market,3135
16,1-17,187,main,go,0,870,13.9945865185664,100.6622689667,หมู่บ้านภัสสร,Phatsakon Village,4225
16,1-17,187,main,go,1,4225,13.807790143,100.56019385,ซอยวิภาวดีรังสิต 22,Soi Vibhavadi Rangsit 22,3902
16,1-17,187,main,go,2,3902,13.7907441224526,100.561227336316,แยกสุทธิสาร(ถนนวิภาวดีรังสิตขาออก),Sutthisan Intersection,4155
16,1-17,187,main,go,3,4155,13.765096538,100.53906206,อนุสาวรีย์ชัยสมรภูมิ (เกาะดินแดง),Victory Monument (Din Daeng),4156
16,1-17,187,main,go,5,4156,13.7641730616197,100.538548058925,อนุสาวรีย์ชัยสมรภูมิ (เกาะพญาไท),Victory Monument (Phaya Thai),4157
16,1-17,187,main,go,7,4157,13.764621093,100.53744871,อนุสาวรีย์ชัยสมรภูมิ (เกาะราชวิถี),Victory Monument (Ratchawithi),4154
16,1-17,187,main,go,8,4154,13.765730509,100.53802991,อนุสาวรีย์ชัยสมรภูมิ (เกาะพหลโยธิน),Victory Monument (Phahon Yothin),4155
17,1-17,187,main,back,0,4155,13.765096538,100.53906206,อนุสาวรีย์ชัยสมรภูมิ (เกาะดินแดง),Victory Monument (Din Daeng),781
17,1-17,187,main,back,1,781,13.7864321097289,100.560165089728,บริษัทกรุงเทพธุรภัณฑ์กรุ๊ปจำกัด,Bangkok Busiquipt Group Co.  Ltd.,780
17,1-17,187,main,back,2,780,13.7883561210625,100.561669496316,แยกสุทธิสาร(ดับเพลิง),Sutthisan Intersection (Fire Station),3349
17,1-17,187,main,back,3,3349,13.78926609,100.5607342,หลังแยกสุทธิสาร ฝั่งอินทามระ ขาเข้า,"After the Sutthisan intersection, Inthamara inbound",3902
17,1-17,187,main,back,4,3902,13.7907441224526,100.561227336316,แยกสุทธิสาร(ถนนวิภาวดีรังสิตขาออก),Sutthisan Intersection,4188
17,1-17,187,main,back,5,4188,13.7934501360228,100.561659986106,ซอยวิภาวดีรังสิต 12/1,Soiwiphawadee Rangsit 12/1,366
17,1-17,187,main,back,6,366,13.809688036,100.56005139,โรงเรียนเซนต์จอห์น,Saint John International School,3905
17,1-17,187,main,back,7,3905,13.810159635,100.55919672,มหาวิทยาลัยเซนต์จอห์น,St. John University,3041
17,1-17,187,main,back,8,3041,13.833139,100.5570313,กองกำกับการสายตรวจ,Patrol,4177
17,1-17,187,main,back,9,4177,13.8425187894211,100.559154206947,ตรงข้ามสถานีวัดเสมียนนารี,Opposite Samian Nari Temple Station,3027
17,1-17,187,main,back,10,3027,13.84503508,100.5606097,โรงพยาบาลวิภาวดีถนนวิภาวดีรังสิต,Vibhavadi Hospital,890
17,1-17,187,main,back,11,890,13.90505782,100.5933446,ตรงข้ามคลังน้ำมันดอนเมือง,Opposite Donmuang oil Terminal,888
17,1-17,187,main,back,12,888,13.9200784016634,100.601749366947,ดอนเมือง (อาคารผู้โดยสาร 1-2),Don Mueang (Terminal 1-2),5353
17,1-17,187,main,back,13,5353,13.919322604,100.60153205,อาคารผู้โดยสาร ชั้น 3,Donmueng Terminal Floor 3,4698
17,1-17,187,main,back,14,4698,13.9419410287317,100.614130896947,บริษัทTTL ISUZU,TTL Company,4184
17,1-17,187,main,back,15,4184,13.9537468435107,100.620099998035,โรงเรียนสังคีต,Mattayom Sangkeet Wittaya Bangkok School,870
18,1-18E,504E,main,go,0,878,13.9873099531831,100.616141647404,เมเจอร์รังสิต,Major Rangsit,889
18,1-18E,504E,main,go,1,889,13.91411847,100.598397,ตรงข้ามตลาดใหม่,Opposite Mai Market,4177
18,1-18E,504E,main,go,2,4177,13.8425187894211,100.559154206947,ตรงข้ามสถานีวัดเสมียนนารี,Opposite Samian Nari Temple Station,3028
18,1-18E,504E,main,go,3,3028,13.83909727,100.5580195,ซอยวิภาวดี 42 ตรงข้ามวัดเสมียน,Vibhavadi Soi 42,3350
18,1-18E,504E,main,go,4,3350,13.7894592,100.5625272,แยกสุทธิสาร ฝั่งอินทามระ ขาออก,"Sutthisan junction, Inthamara departure",780
18,1-18E,504E,main,go,5,780,13.7883561210625,100.561669496316,แยกสุทธิสาร(ดับเพลิง),Sutthisan Intersection (Fire Station),781
18,1-18E,504E,main,go,6,781,13.7864321097289,100.560165089728,บริษัทกรุงเทพธุรภัณฑ์กรุ๊ปจำกัด,Bangkok Busiquipt Group Co.  Ltd.,2448
18,1-18E,504E,main,go,7,2448,13.76082126,100.5424004,ตรงข้ามวัดตะพาน,Wat Taphan (Opoosite),2449
18,1-18E,504E,main,go,8,2449,13.76043497,100.5425439,วัดตะพาน,Wat Taphan,2730
19,1-18E,504E,main,back,0,3614,13.72077654,100.5159918,โรบินสันบางรัก,Robinson Bang Rak,3261
19,1-18E,504E,main,back,1,3261,13.7223114,100.5173031,รพ.เลิดสิน,Lerdsin Hospital,2728
19,1-18E,504E,main,back,2,2728,13.73119217,100.5374385,ตรงข้ามโรงพยาบาลจุฬาลงกรณ์ ฝั่งราชดำริ,"Opposite Chulalongkorn Hospital, Ratchadamri",2731
19,1-18E,504E,main,back,3,2731,13.73395646,100.5382039,แยกราชดำริ,Ratchadamri junction,2452
19,1-18E,504E,main,back,4,2452,13.7471268,100.5406854,บิ๊กซีราชดำริ,Big C Rajdamri,2447
19,1-18E,504E,main,back,5,2447,13.75762467,100.5426214,ตรงข้ามซอยรางน้ำ,Soi Rang Nam (Opoosite),3443
19,1-18E,504E,main,back,6,3443,13.76337945,100.5446651,สำนักงาน ป.ป.ส.,Office of the Narcotics Control Board,3349
19,1-18E,504E,main,back,7,3349,13.78926609,100.5607342,หลังแยกสุทธิสาร ฝั่งอินทามระ ขาเข้า,"After the Sutthisan intersection, Inthamara inbound",3380
19,1-18E,504E,main,back,8,3380,13.78919864,100.5608093,หลังแยกสุทธิสาร ฝั่งอินทามระ ขาเข้า,"After the Sutthisan intersection, Inthamara inbound",3902
19,1-18E,504E,main,back,9,3902,13.7907441224526,100.561227336316,แยกสุทธิสาร(ถนนวิภาวดีรังสิตขาออก),Sutthisan Intersection,4187
19,1-18E,504E,main,back,10,4187,13.7993146724839,100.561080308035,ซอยวิภาวดี 18 ตึกวรสิน,Soi Viphawadi 18,4228
19,1-18E,504E,main,back,11,4228,13.7995917239297,100.560328267614,อาคารอีสท์วอเตอร์,East Water Building,3030
19,1-18E,504E,main,back,12,3030,13.82447335,100.5585309,อาคารชินวัตร3 บริษัทตรีเพชร,Shinawatra Tower 3,3040
19,1-18E,504E,main,back,13,3040,13.82506363,100.557802,ตรงข้ามตรีเพชรอีซูซุ,Opposite Tri Petch Isuzu,3028
19,1-18E,504E,main,back,14,3028,13.83909727,100.5580195,ซอยวิภาวดี 42 ตรงข้ามวัดเสมียน,Vibhavadi Soi 42,3042
20,1-19,510,main,go,0,1367,14.075261649,100.61812499,ตรงข้าม มธ.ศูนย์รังสิต,Thammasat University Rangsit Campus (Opposite),1371
20,1-19,510,main,go,1,1371,14.0488647523276,100.617059499122,โรงพยาบาลภัทร-ธนบุรี,Pat-Nonthaburi Hospital,1381
20,1-19,510,main,go,2,1381,14.04900613,100.6164402,หมู่บ้านกฤษดา,Muban Kritsada,1378
20,1-19,510,main,go,3,1378,14.030411826,100.61569179,ตรงข้ามสุเหร่าแก้วนิมิตร,Kaeo Nimit Mosque (Opposite),845
20,1-19,510,main,go,4,845,13.9652621632142,100.619331864351,วัดประยูร หมู่บ้านสีวลี,Wat Prayoon   Sivalee Village,4957
20,1-19,510,main,go,5,4957,13.920266373,100.60214632,อาคารผู้โดยสาร 1 ชั้น 1 ประตู 6,Donmueng Terminal 1 (Exit 6),3043
20,1-19,510,main,go,6,3043,13.84655798,100.5606195,สถานีรถไฟบางเขน ตรงข้ามโรงพยาบาลวิภาวดี,Bang Khen Railway Station,2240
20,1-19,510,main,go,7,2240,13.8130052808402,100.560998151298,ปากทางลาดพร้าว-วิภาวดีรังสิต,Lat phrao - Wiphawadi Rangsit,1923
21,1-19,510,main,back,0,3359,13.77761315,100.5680925,ตลาดห้วยขวางจุด 2,"Huai Khwang Market, Point 2",1068
21,1-19,510,main,back,1,1068,13.777477546,100.57050995,สถานีดับเพลิงห้วยขวาง สาธารณสุข 52,Fire station (Huay Khwang),3028
21,1-19,510,main,back,2,3028,13.83909727,100.5580195,ซอยวิภาวดี 42 ตรงข้ามวัดเสมียน,Vibhavadi Soi 42,3042
21,1-19,510,main,back,3,3042,13.83959843,100.5574017,วัดเสมียนนารี,Wat Samian Nari,889
21,1-19,510,main,back,4,889,13.91411847,100.598397,ตรงข้ามตลาดใหม่,Opposite Mai Market,905
21,1-19,510,main,back,5,905,13.9142166422078,100.59804913328,ตลาดใหม่ดอนเมือง,New Don Mueang Market,907
21,1-19,510,main,back,6,907,13.9275946526608,100.605561804141,ตรงข้ามฝ่ายช่างดอนเมือง,Researcher Don Muang Airport Air (Opposite),4184
21,1-19,510,main,back,7,4184,13.9537468435107,100.620099998035,โรงเรียนสังคีต,Mattayom Sangkeet Wittaya Bangkok School,837
22,1-20E,510E,main,go,0,1367,14.075261649,100.61812499,ตรงข้าม มธ.ศูนย์รังสิต,Thammasat University Rangsit Campus (Opposite),1371
22,1-20E,510E,main,go,1,1371,14.0488647523276,100.617059499122,โรงพยาบาลภัทร-ธนบุรี,Pat-Nonthaburi Hospital,1381
22,1-20E,510E,main,go,2,1381,14.04900613,100.6164402,หมู่บ้านกฤษดา,Muban Kritsada,1378
22,1-20E,510E,main,go,3,1378,14.030411826,100.61569179,ตรงข้ามสุเหร่าแก้วนิมิตร,Kaeo Nimit Mosque (Opposite),845
22,1-20E,510E,main,go,4,845,13.9652621632142,100.619331864351,วัดประยูร หมู่บ้านสีวลี,Wat Prayoon   Sivalee Village,4957
22,1-20E,510E,main,go,5,4957,13.920266373,100.60214632,อาคารผู้โดยสาร 1 ชั้น 1 ประตู 6,Donmueng Terminal 1 (Exit 6),3043
22,1-20E,510E,main,go,6,3043,13.84655798,100.5606195,สถานีรถไฟบางเขน ตรงข้ามโรงพยาบาลวิภาวดี,Bang Khen Railway Station,3029
22,1-20E,510E,main,go,7,3029,13.83385411,100.5575702,สถานีตำรวจวิภาวดี หนังสือพิมพ์บ้านเมือง,Police Station Vibhavadi,3031
22,1-20E,510E,main,go,8,3031,13.81950637,100.5589857,โรงเรียนหอวัง,Horwang School,3920
22,1-20E,510E,main,go,9,3920,13.783853277,100.54624625,ซอยพหลโยธิน 8 ซอยสายลม,Sai Lom (Phahonyothin 8),3989
22,1-20E,510E,main,go,10,3989,13.784273759,100.54618793,กองบัญชาการตำรวจตระเวนชายแดน,Border Patrol Police Bureau,3925
22,1-20E,510E,main,go,11,3925,13.7696166831737,100.541030053673,ป้ายตรงข้ามโรงพยาบาลพญาไท 2,Signs opposite Phayathai 2 Hospital,4155
22,1-20E,510E,main,go,12,4155,13.765096538,100.53906206,อนุสาวรีย์ชัยสมรภูมิ (เกาะดินแดง),Victory Monument (Din Daeng),4156
22,1-20E,510E,main,go,13,4156,13.7641730616197,100.538548058925,อนุสาวรีย์ชัยสมรภูมิ (เกาะพญาไท),Victory Monument (Phaya Thai),4157
22,1-20E,510E,main,go,15,4157,13.764621093,100.53744871,อนุสาวรีย์ชัยสมรภูมิ (เกาะราชวิถี),Victory Monument (Ratchawithi),4154
23,1-20E,510E,main,back,0,4154,13.765730509,100.53802991,อนุสาวรีย์ชัยสมรภูมิ (เกาะพหลโยธิน),Victory Monument (Phahon Yothin),5348
23,1-20E,510E,main,back,1,5348,13.7702764169507,100.541121556794,โรงพยาบาลพญาไท 2,Phyathai 2 Hospital,4180
23,1-20E,510E,main,back,2,4180,13.8142524283871,100.558848506069,สวนวชิรเบญจทัศสวนรถไฟ,"Wachira Ben Park, Railway",3028
23,1-20E,510E,main,back,3,3028,13.83909727,100.5580195,ซอยวิภาวดี 42 ตรงข้ามวัดเสมียน,Vibhavadi Soi 42,3042
23,1-20E,510E,main,back,4,3042,13.83959843,100.5574017,วัดเสมียนนารี,Wat Samian Nari,889
23,1-20E,510E,main,back,5,889,13.91411847,100.598397,ตรงข้ามตลาดใหม่,Opposite Mai Market,905
23,1-20E,510E,main,back,6,905,13.9142166422078,100.59804913328,ตลาดใหม่ดอนเมือง,New Don Mueang Market,907
23,1-20E,510E,main,back,7,907,13.9275946526608,100.605561804141,ตรงข้ามฝ่ายช่างดอนเมือง,Researcher Don Muang Airport Air (Opposite),4184
23,1-20E,510E,main,back,8,4184,13.9537468435107,100.620099998035,โรงเรียนสังคีต,Mattayom Sangkeet Wittaya Bangkok School,837
24,1-21,114,main,go,0,5200,13.827895,100.485187,แม็คโครนครอินทร์,Makro Nakhon In,4412
24,1-21,114,main,go,1,4412,13.829783175,100.49077828,วัดสังฆทาน,Wat Sangkhathan,5217
24,1-21,114,main,go,2,5217,13.830494582,100.49062991,บางไผ่ ซอย 19,Bang Pai Soi 19,4412
24,1-21,114,main,go,3,4412,13.829783175,100.49077828,วัดสังฆทาน,Wat Sangkhathan,5217
24,1-21,114,main,go,4,5217,13.830494582,100.49062991,บางไผ่ ซอย 19,Bang Pai Soi 19,3101
24,1-21,114,main,go,5,3101,13.84361881,100.4968983,ซอยประชาราษฎร์ 22,Soi Pracharat 22,3169
24,1-21,114,main,go,6,3169,13.84348189,100.4969166,ซอยประชาราษฎร์ 11,Soi Pracharat 11,3102
24,1-21,114,main,go,7,3102,13.84387367,100.4985278,วัดทินกรนิมิต,Wat Tinakorn Nimit,3168
24,1-21,114,main,go,8,3168,13.84371215,100.4985016,ตรงข้ามวัดทินกร,Wat Tinnakorn,1270
24,1-21,114,main,go,9,1270,13.8438302870191,100.502860053263,หมู่บ้านช.รุ่งเรือง 4 โรงเรียนนนทบุรีคริสเตียนวิทยา,Chor Rungruang 4 Village,3166
24,1-21,114,main,go,10,3166,13.84362435,100.5095475,โรงเรียนวัดลานนาบุญ,Wat Lannabun School,5194
24,1-21,114,main,go,11,5194,13.8551299549831,100.519106046527,ธนาคารกรุงศรีอยุธยา สาขาติวานนท์(แคราย),Krungsri Bank (Ti Wa Non Road),3109
24,1-21,114,main,go,12,3109,13.8570399,100.5204003,ตรงข้ามซอยปิ่นประภาคม 1,Soi Pinpraphakhom 1,3161
24,1-21,114,main,go,13,3161,13.85689225,100.5206484,ซอยปิ่นประภาคม 1,Soi Pinprapakom 1,5504
24,1-21,114,main,go,14,5504,13.8570708499109,100.520395666521,แยกแคราย ตรงข้ามซอยปิ่นประภาคม 1,"Khae Rai intersection, opposite Soi Pinprapha Khom 1",5505
24,1-21,114,main,go,15,5505,13.8569446439857,100.520648078371,แยกแคราย ซอยปิ่นประภาคม 1,"Khae Rai Intersection, Soi Pinprapha Khom 1",1254
24,1-21,114,main,go,16,1254,13.8566735387985,100.545031265439,แยกพงษ์เพชร,Pong Phet Intersection,4176
24,1-21,114,main,go,17,4176,13.8652005152926,100.571398916737,หมู่บ้านสุขสรรพ์,Suksan village,889
24,1-21,114,main,go,18,889,13.91411847,100.598397,ตรงข้ามตลาดใหม่,Opposite Mai Market,907
24,1-21,114,main,go,19,907,13.9275946526608,100.605561804141,ตรงข้ามฝ่ายช่างดอนเมือง,Researcher Don Muang Airport Air (Opposite),844
25,1-21,114,main,back,0,4184,13.9537468435107,100.620099998035,โรงเรียนสังคีต,Mattayom Sangkeet Wittaya Bangkok School,885
25,1-21,114,main,back,1,885,13.9304809262202,100.607583293684,ตรงข้ามสถานีตำรวจนครบาลดอนเมือง,Police Station Don Mueang (Opposite),888
25,1-21,114,main,back,2,888,13.9200784016634,100.601749366947,ดอนเมือง (อาคารผู้โดยสาร 1-2),Don Mueang (Terminal 1-2),4957
25,1-21,114,main,back,3,4957,13.920266373,100.60214632,อาคารผู้โดยสาร 1 ชั้น 1 ประตู 6,Donmueng Terminal 1 (Exit 6),5555
25,1-21,114,main,back,4,5555,13.9200751647217,100.601786844071,สนามบินดอนเมือง จุดขึ้นรถสาย A ชั้น 1 ประตู 6,"Don Mueang Airport, Line A Car, Floor 1, Gate 6",904
25,1-21,114,main,back,5,904,13.905849839229,100.59331012177,คลังน้ำมัน(ถนนวิภาวดีรังสิต),Fuel Depot (Vibhava Rangsit Road),3024
25,1-21,114,main,back,6,3024,13.85767023,100.5672876,บริษัท ยาคูลท์,Yakult (Thailand) Co.Ltd.,3834
25,1-21,114,main,back,7,3834,13.855409,100.5469851,ตลาดพงษ์เพชร,Pong Phet Market,3795
25,1-21,114,main,back,8,3795,13.85615301,100.5460385,แยกพงษ์เพชร(ซอยพงษ์เพชรพัฒนา),Phongphet Intersection,3107
25,1-21,114,main,back,9,3107,13.84953259,100.5152884,สำนักงานสรรพากรภาค 4,Revenue Office Region 4,3106
25,1-21,114,main,back,10,3106,13.84752496,100.5138576,ตรงข้ามกระทรวงสาธารณสุข,Ministry of Public Health (Opposite),3164
25,1-21,114,main,back,11,3164,13.84739283,100.514169,กระทรวงสาธารณสุข,Ministry of Public Health,3105
25,1-21,114,main,back,12,3105,13.84425499,100.5116031,บิ๊กซี นนทบุรี,Big C Nonthaburi,3165
25,1-21,114,main,back,13,3165,13.8440561,100.5118928,ตรงข้ามบิ๊กซีติวานนท์,Big C Tiwanon,5550
25,1-21,114,main,back,14,5550,13.84422387,100.5115422,บิ๊กซี นนทบุรี,Big C Nonthaburi,5551
25,1-21,114,main,back,15,5551,13.84402955,100.5118813,ตรงข้ามบิ๊กซีนนทบุรี,Opposite Big C Nonthaburi,3104
25,1-21,114,main,back,16,3104,13.84377395,100.5094046,ตรงข้ามโรงเรียนวัดลานนาบุญ,Wat Lannabun School (Opposite),3166
25,1-21,114,main,back,17,3166,13.84362435,100.5095475,โรงเรียนวัดลานนาบุญ,Wat Lannabun School,5228
25,1-21,114,main,back,18,5228,13.843820484,100.50943276,ตรงข้ามวัดลานนาบุญ,Wat Laannabun (Opposite),3104
25,1-21,114,main,back,19,3104,13.84377395,100.5094046,ตรงข้ามโรงเรียนวัดลานนาบุญ,Wat Lannabun School (Opposite),3166
25,1-21,114,main,back,20,3166,13.84362435,100.5095475,โรงเรียนวัดลานนาบุญ,Wat Lannabun School,5228
25,1-21,114,main,back,21,5228,13.843820484,100.50943276,ตรงข้ามวัดลานนาบุญ,Wat Laannabun (Opposite),1270
25,1-21,114,main,back,22,1270,13.8438302870191,100.502860053263,หมู่บ้านช.รุ่งเรือง 4 โรงเรียนนนทบุรีคริสเตียนวิทยา,Chor Rungruang 4 Village,5227
25,1-21,114,main,back,23,5227,13.843982491,100.50216329,ตรงข้ามโรงเรียนสาธิตคริสเตียนวิทยา,Opposite Christian Witthaya Demonstration School,3102
25,1-21,114,main,back,24,3102,13.84387367,100.4985278,วัดทินกรนิมิต,Wat Tinakorn Nimit,3168
25,1-21,114,main,back,25,3168,13.84371215,100.4985016,ตรงข้ามวัดทินกร,Wat Tinnakorn,3170
25,1-21,114,main,back,26,3170,13.8421182,100.4959431,เมเจอร์นนทบุรี,Major Nontaburi,3099
25,1-21,114,main,back,27,3099,13.84055767,100.4962176,ตลาดนนท์,Non Market,3171
25,1-21,114,main,back,28,3171,13.83869764,100.4974096,แยกเมืองนนทบุรี,Muang Nonthaburi Intersection,3314
25,1-21,114,main,back,29,3314,13.83643206,100.4987024,โรงเรียนการัญศึกษา,Karansuksa school,3412
25,1-21,114,main,back,30,3412,13.83616053,100.4985512,วิทยาลัยเทคโนโลยีพงษ์สวัสดิ์,Pongsawadi Technological College,5487
25,1-21,114,main,back,31,5487,13.8364650040082,100.498680779067,โรงเรียนการัญศึกษา,School of Education,4412
25,1-21,114,main,back,32,4412,13.829783175,100.49077828,วัดสังฆทาน,Wat Sangkhathan,5217
25,1-21,114,main,back,33,5217,13.830494582,100.49062991,บางไผ่ ซอย 19,Bang Pai Soi 19,4412
25,1-21,114,main,back,34,4412,13.829783175,100.49077828,วัดสังฆทาน,Wat Sangkhathan,5217
26,1-22E,522E,main,go,0,3133,13.94871439,100.6229291,แยกลำลูกกา ตลาดลำลูกกา,Lam Luk Ka Intersection Lam Luk Ka Market,3130
26,1-22E,522E,main,go,1,3130,13.93632394,100.6246946,ตรงข้ามซอยแอนเนกซ์,Soi Annex (Opposite),3137
26,1-22E,522E,main,go,2,3137,13.93634682,100.6251047,ซอยแอนเน็กซ์,Soi Annex (Opposite),3128
26,1-22E,522E,main,go,3,3128,13.92462354,100.625427,แยก คปอ. แยกแปดแฉก,Kor Por Or Intersection,3150
26,1-22E,522E,main,go,4,3150,13.89273133,100.606969,ตรงข้ามตลาดไทยณรงค์,Opposite Thai Narong Market,3155
26,1-22E,522E,main,go,5,3155,13.87971033,100.5992797,เทสโก้โลตัสหลักสี่บางเขน กรมทหารสื่อสารกองทัพบก,Tesco Lotus Laksi,3880
26,1-22E,522E,main,go,6,3880,13.87063978,100.5936594,วัดพระศรีมหาธาตุ,Wat Phra Si Mahathat,3891
26,1-22E,522E,main,go,7,3891,13.84302895,100.5776996,ธนาคารเพื่อการเกษตรและสหกรณ์การเกษตร (สำนักงานใหญ่),BAAC Headquarter,5216
26,1-22E,522E,main,go,8,5216,13.849783169,100.55703176,ลาดยาว ตรงข้ามการไฟฟ้าส่วนภูมิภาค (สำนักงานใหญ่),Lat Yao,3795
26,1-22E,522E,main,go,9,3795,13.85615301,100.5460385,แยกพงษ์เพชร(ซอยพงษ์เพชรพัฒนา),Phongphet Intersection,3818
26,1-22E,522E,main,go,10,3818,13.80638731,100.5482586,สวนสมเด็จพระนางเจ้าสิริกิติ์,Queen Sirikit Park,511
26,1-22E,522E,main,go,11,511,13.7943644667206,100.538974256737,แยกประดิพัทธ์(ตรงข้ามซอย43),Pradipat Intersection (Opposite Soi 43),367
26,1-22E,522E,main,go,12,367,13.7662147902218,100.53515824,โรงพยาบาลเด็ก,Children Hospital,3983
26,1-22E,522E,main,go,13,3983,13.7664073401284,100.535255370964,โรงพยาบาลพระมงกุฎเกล้า,Phramongkutklao Hospital,4154
27,1-22E,522E,main,back,0,1995,13.776942031,100.53204297,ซอยศาสนา,Soi Satsana,4318
27,1-22E,522E,main,back,1,4318,13.776556658,100.53162414,กรมโยธาธิการและผังเมือง,Department of Public Works and Town & Country Planning,4321
27,1-22E,522E,main,back,2,4321,13.778464847,100.53242612,ซอยเศรษฐศิริ,Soi Sethasiri,1998
27,1-22E,522E,main,back,3,1998,13.784131049,100.53470264,โรงเรียนสามเสน,Samsen Wittayarai School,511
27,1-22E,522E,main,back,4,511,13.7943644667206,100.538974256737,แยกประดิพัทธ์(ตรงข้ามซอย43),Pradipat Intersection (Opposite Soi 43),5188
27,1-22E,522E,main,back,5,5188,13.808054444,100.5481651,กฟน.จตุจักร,MEA Chatuchak,3837
27,1-22E,522E,main,back,7,3837,13.85722292,100.5355827,ตรงข้ามวัดบัวขวัญ,Wat Bua Khwan,3795
27,1-22E,522E,main,back,9,3795,13.85615301,100.5460385,แยกพงษ์เพชร(ซอยพงษ์เพชรพัฒนา),Phongphet Intersection,5330
27,1-22E,522E,main,back,10,5330,13.867737502,100.59190043,ซอยพหลโยธิน 53,Soi Phaholyothin 53,3113
27,1-22E,522E,main,back,11,3113,13.88039977,100.5993815,ตรงข้ามโลตัสหลักสี่,Opposite Lotus Laksi,3155
27,1-22E,522E,main,back,12,3155,13.87971033,100.5992797,เทสโก้โลตัสหลักสี่บางเขน กรมทหารสื่อสารกองทัพบก,Tesco Lotus Laksi,3126
27,1-22E,522E,main,back,13,3126,13.91993158,100.622649,พิพิธภัณฑ์กองทัพอากาศ,Royal Thai Air Force Museum,3132
27,1-22E,522E,main,back,14,3132,13.94330452,100.6234124,ตรงข้ามโรงพยาบาลบีแคร์,B.Care Medical Center Hospital,4674
27,1-22E,522E,main,back,15,4674,13.9432599645936,100.623825522386,โรงพยาบาลบีแคร์เมดิคอลเซ็นเตอร์,B.Care Medical Center,839
27,1-22E,522E,main,back,16,839,13.9600652039081,100.620926403473,เซียร์รังสิต,Zeer Rangsit,843
28,1-23,524,main,go,0,1593,13.8817924986545,100.586224807825,โรงเรียนเจริญผล,Charoen Phon School,1636
28,1-23,524,main,go,1,1636,13.8818032685033,100.585678112459,ตรงข้ามโรงเรียนเจริญผล,Charoenpol School (Opposite),1595
28,1-23,524,main,go,2,1595,13.877562934923,100.593770907824,ตรงข้ามโรงเรียนสาธิตวัดพระศรีมหาธาตุ,Wat Prasri Mahadhat Demonstration School (Opposite),1634
28,1-23,524,main,go,3,1634,13.8772228983939,100.59379168042,โรงเรียนสาธิตวัดพระศรีมหาธาตุ,Wat Prasri Mahadhat Demonstration School,5603
28,1-23,524,main,go,4,5603,13.87719408,100.5937595,โรงเรียนสาธิตมัธยมวัดพระศรีมหาธาตุ,Wat Phrasrimahadhat Secondary Demonstration Schoo,5604
28,1-23,524,main,go,5,5604,13.87752126,100.5937917,ตรงข้ามโรงเรียนสาธิตมัธยมวัดพระศรีมหาธาตุ,Opposite Wat Phrasrimahadhat Secondary Demonstrationschool School,3914
28,1-23,524,main,go,6,3914,13.869471736,100.5924624,อู่บางเขน,Bus Depot Bangkhen,3884
28,1-23,524,main,go,7,3884,13.86607002,100.5912704,ป้ายรถประจำทาง ธนาคารอาคารสงเคราะห์ 3,Bus stopGovernment Housing Bank 3,2240
28,1-23,524,main,go,8,2240,13.8130052808402,100.560998151298,ปากทางลาดพร้าว-วิภาวดีรังสิต,Lat phrao - Wiphawadi Rangsit,3821
28,1-23,524,main,go,9,3821,13.80778399,100.5565476,ตรงข้าม ธนาคารทหารไทย (สำนักงานใหญ่),TMB Bank (Headquarter) (Opposite),3815
28,1-23,524,main,go,10,3815,13.80019156,100.5525562,กรมการขนส่งทางบก,Department of Land Transport,3343
28,1-23,524,main,go,11,3343,13.79101806,100.5425416,โรงแรมกานต์มณี,Kan Manee Hotel,3387
28,1-23,524,main,go,12,3387,13.79094947,100.5420194,โรงแรมมิโดโฮเต็ล,Mido Hotel,3389
28,1-23,524,main,go,13,3389,13.79187884,100.5374834,ไปรษณีย์ประดิพัทธ์,Pradipat Postal Post Office,3336
28,1-23,524,main,go,14,3336,13.79602561,100.5249332,ตรงข้ามกรมทหารม้าที่ 1,Opposite the 1st Cavalry Regiment,5404
28,1-23,524,main,go,15,5404,13.795802113069,100.524944572421,กองพันทหารม้าที่ 3 รักษาพระองค์ฯ,3rd Cavakry Division  King's Guard,1817
28,1-23,524,main,go,16,1817,13.7906493709956,100.515642958492,บางกะบือ น้อมจิตต์ ห้างสุพรีม,Bang Krabue,1825
28,1-23,524,main,go,17,1825,13.784977142,100.51153628,วิทยาลัยอาชีวศึกษาอาชีวศิลป์ ตรงข้ามตลาดศรีย่าน,Archivasilp Art Vocational College  Sri Yan Market (opposite),1819
28,1-23,524,main,go,18,1819,13.7790400111795,100.50883491372,ตรงข้ามวชิรพยาบาล,Vajira Hospital (opposite),3934
28,1-23,524,main,go,19,3934,13.7829516900449,100.497893678602,หลังสะพานกรุงธนซังฮี้,Behind the Krung Than Sang Hi Bridge,5196
28,1-23,524,main,go,20,5196,13.783030144037,100.498410582596,ตรงข้ามโรงเรียนเขมะสิริอนุสสรณ์,Khemasiri Memorial School (Opposite),4391
28,1-23,524,main,go,21,4391,13.789848292,100.47761936,ตรงข้ามซอยสถานีบางบำหรุ,Opposite Soi Bang Bamru Station,2308
28,1-23,524,main,go,22,2308,13.7854045,100.4615348,หลังถนนชัยพฤกษ์,After Chaiyaphruek Road,2286
28,1-23,524,main,go,23,2286,13.780939064,100.44505599,กรมสวัสดิการและคุ้มครองแรงงาน กองตรวจความปลอดภัย ซอยฉิมพลี 2,Department of Labor Protection and Welfare  Chim Phli Soi 2,2311
28,1-23,524,main,go,24,2311,13.78039,100.445142,สน.ตลิ่งชัน,Police Station Talingchan,2285
28,1-23,524,main,go,25,2285,13.78040292,100.4430474,ทางแยกต่างระดับบรม-ราชพฤกษ์ขาออก,Borom-Ratchaphruek Interchange Outbound,2312
28,1-23,524,main,go,26,2312,13.779814444,100.44289508,ต่างระดับบรมฯ-ราชพฤกษ์ ขาออก,"Different levels-Ratchaphruek, outbound",5185
28,1-23,524,main,go,27,5185,13.779986374,100.44277707,ต่างระดับราชพฤกษ์-บรมราชชนนี,Ratchaphruek - Boromratchachonnani Interchange,5186
28,1-23,524,main,go,28,5186,13.780395,100.443075,บรมราชชนนี 46,Boromratchachonnani 46,2284
28,1-23,524,main,go,29,2284,13.78025712,100.4394068,ตรงข้ามวัดกระจ่าง,Opposite Wat Krajang,2313
29,1-23,524,main,back,0,5429,13.7809814061723,100.422958541145,สถานีขนส่งสายใต้ใหม่(ตลิ่งชัน),Bus Terminal Southern (Talingchan),2315
29,1-23,524,main,back,2,2315,13.780565002,100.43091427,โรงเรียนโพธิสาร(ซอยวัดมะกอก),Potisarnpittayakorn School,2285
29,1-23,524,main,back,3,2285,13.78040292,100.4430474,ทางแยกต่างระดับบรม-ราชพฤกษ์ขาออก,Borom-Ratchaphruek Interchange Outbound,2312
29,1-23,524,main,back,4,2312,13.779814444,100.44289508,ต่างระดับบรมฯ-ราชพฤกษ์ ขาออก,"Different levels-Ratchaphruek, outbound",5185
29,1-23,524,main,back,5,5185,13.779986374,100.44277707,ต่างระดับราชพฤกษ์-บรมราชชนนี,Ratchaphruek - Boromratchachonnani Interchange,5186
29,1-23,524,main,back,6,5186,13.780395,100.443075,บรมราชชนนี 46,Boromratchachonnani 46,2286
29,1-23,524,main,back,7,2286,13.780939064,100.44505599,กรมสวัสดิการและคุ้มครองแรงงาน กองตรวจความปลอดภัย ซอยฉิมพลี 2,Department of Labor Protection and Welfare  Chim Phli Soi 2,2311
29,1-23,524,main,back,8,2311,13.78039,100.445142,สน.ตลิ่งชัน,Police Station Talingchan,2287
29,1-23,524,main,back,9,2287,13.783234299,100.45267046,บริษัท เบนซ์ตลิ่งชัน จำกัด,Benz Co.  Ltd (Talingchan),4391
29,1-23,524,main,back,10,4391,13.789848292,100.47761936,ตรงข้ามซอยสถานีบางบำหรุ,Opposite Soi Bang Bamru Station,2964
29,1-23,524,main,back,11,2964,13.78503262,100.4950172,โรงเรียนพิมลวิทย์,Phimonwit School,5130
29,1-23,524,main,back,12,5130,13.7857039104316,100.511286533931,ท่าปล่อยรถสาย 14,Bus Terminal Line14,3335
29,1-23,524,main,back,13,3335,13.79703096,100.5222186,ปตอ.,Por Tor Or,3337
29,1-23,524,main,back,14,3337,13.79555515,100.525891,โรงเรียนทหารสรรพาวุธ,Aranyaput Military School,377
29,1-23,524,main,back,15,377,13.7933486421026,100.530904556737,กรมช่างอากาศ,Directorate of Aeronautical Engineering,3342
29,1-23,524,main,back,16,3342,13.79137568,100.540853,ตรงข้ามสำนักงานเลขาธิการ,Secretariat (Opposite),3916
29,1-23,524,main,back,18,3916,13.79704684,100.55099104,แยกกำแพงเพชร,Junction Kamphaeng Phet,3810
29,1-23,524,main,back,19,3810,13.81795042,100.562957,เทสโก้โลตัสลาดพร้าว,Tesco Lotus Lat Phrao,3804
29,1-23,524,main,back,20,3804,13.8351513,100.5730817,ตลาดบางเขน,Bang Khen Market,3827
29,1-23,524,main,back,21,3827,13.83528042,100.5728377,ตรงข้ามตลาดบางเขน,Opposite Bang Khen Market,3908
29,1-23,524,main,back,22,3908,13.8485834628958,100.580659885649,กรมป่าไม้,Royal Forest Dept.,3882
30,1-24E,538E,main,go,0,878,13.9873099531831,100.616141647404,เมเจอร์รังสิต,Major Rangsit,5477
30,1-24E,538E,main,go,1,5477,13.9872181236434,100.616131995653,เมเจอร์รังสิต,Major Rangsit,878
30,1-24E,538E,main,go,2,878,13.9873099531831,100.616141647404,เมเจอร์รังสิต,Major Rangsit,5477
30,1-24E,538E,main,go,3,5477,13.9872181236434,100.616131995653,เมเจอร์รังสิต,Major Rangsit,878
30,1-24E,538E,main,go,4,878,13.9873099531831,100.616141647404,เมเจอร์รังสิต,Major Rangsit,886
30,1-24E,538E,main,go,5,886,13.927494947277,100.605910443684,ฝ่ายช่างท่าอากาศดอนเมือง,Researcher Don Muang Airport Air,907
30,1-24E,538E,main,go,6,907,13.9275946526608,100.605561804141,ตรงข้ามฝ่ายช่างดอนเมือง,Researcher Don Muang Airport Air (Opposite),892
30,1-24E,538E,main,go,7,892,13.88685623,100.5835078,ตรงข้ามวัดหลักสี่,Opposite Wat Lak Si,5548
30,1-24E,538E,main,go,8,5548,13.886921062794,100.583594291522,สี่แยกหลักสี่ (ถนนวิภาวดีรังสิต),Lak Si Intersection,5546
30,1-24E,538E,main,go,9,5546,13.87908499,100.5783517,สถาบันวิจัยจุฬาภรณ์,Chulaporn Research Institute,3024
30,1-24E,538E,main,go,10,3024,13.85767023,100.5672876,บริษัท ยาคูลท์,Yakult (Thailand) Co.Ltd.,3028
30,1-24E,538E,main,go,11,3028,13.83909727,100.5580195,ซอยวิภาวดี 42 ตรงข้ามวัดเสมียน,Vibhavadi Soi 42,3029
30,1-24E,538E,main,go,12,3029,13.83385411,100.5575702,สถานีตำรวจวิภาวดี หนังสือพิมพ์บ้านเมือง,Police Station Vibhavadi,3905
30,1-24E,538E,main,go,13,3905,13.810159635,100.55919672,มหาวิทยาลัยเซนต์จอห์น,St. John University,3379
30,1-24E,538E,main,go,14,3379,13.78927632,100.5626045,ก่อนแยกสุทธิสาร ฝั่งอินทามระ ขาเข้า,"Before the Sutthisan junction, Inthamara inbound",4192
30,1-24E,538E,main,go,15,4192,13.7716924785902,100.552662247924,สวนป่าวิภาวดี,Vibhavadi Forest Park,3419
30,1-24E,538E,main,go,16,3419,13.76337829,100.5458408,ตรงข้ามสำนักงานปปส,Opposite the Office,4156
30,1-24E,538E,main,go,17,4156,13.7641730616197,100.538548058925,อนุสาวรีย์ชัยสมรภูมิ (เกาะพญาไท),Victory Monument (Phaya Thai),4157
30,1-24E,538E,main,go,19,4157,13.764621093,100.53744871,อนุสาวรีย์ชัยสมรภูมิ (เกาะราชวิถี),Victory Monument (Ratchawithi),367
30,1-24E,538E,main,go,20,367,13.7662147902218,100.53515824,โรงพยาบาลเด็ก,Children Hospital,3983
31,1-24E,538E,main,back,1,4157,13.764621093,100.53744871,อนุสาวรีย์ชัยสมรภูมิ (เกาะราชวิถี),Victory Monument (Ratchawithi),4154
31,1-24E,538E,main,back,3,4154,13.765730509,100.53802991,อนุสาวรีย์ชัยสมรภูมิ (เกาะพหลโยธิน),Victory Monument (Phahon Yothin),4155
31,1-24E,538E,main,back,4,4155,13.765096538,100.53906206,อนุสาวรีย์ชัยสมรภูมิ (เกาะดินแดง),Victory Monument (Din Daeng),4156
31,1-24E,538E,main,back,5,4156,13.7641730616197,100.538548058925,อนุสาวรีย์ชัยสมรภูมิ (เกาะพญาไท),Victory Monument (Phaya Thai),4192
31,1-24E,538E,main,back,6,4192,13.7716924785902,100.552662247924,สวนป่าวิภาวดี,Vibhavadi Forest Park,3349
31,1-24E,538E,main,back,7,3349,13.78926609,100.5607342,หลังแยกสุทธิสาร ฝั่งอินทามระ ขาเข้า,"After the Sutthisan intersection, Inthamara inbound",3380
31,1-24E,538E,main,back,8,3380,13.78919864,100.5608093,หลังแยกสุทธิสาร ฝั่งอินทามระ ขาเข้า,"After the Sutthisan intersection, Inthamara inbound",3902
31,1-24E,538E,main,back,9,3902,13.7907441224526,100.561227336316,แยกสุทธิสาร(ถนนวิภาวดีรังสิตขาออก),Sutthisan Intersection,4188
31,1-24E,538E,main,back,10,4188,13.7934501360228,100.561659986106,ซอยวิภาวดีรังสิต 12/1,Soiwiphawadee Rangsit 12/1,4206
31,1-24E,538E,main,back,11,4206,13.7939264665907,100.56101316979,อาคารสาคร-กัลยามณี,Sakorn-Galrang Building,4178
31,1-24E,538E,main,back,12,4178,13.8280926829864,100.55813297,สำนักงานเขตจตุจักร,Chatuchak Distrct Office,4177
31,1-24E,538E,main,back,13,4177,13.8425187894211,100.559154206947,ตรงข้ามสถานีวัดเสมียนนารี,Opposite Samian Nari Temple Station,4184
31,1-24E,538E,main,back,14,4184,13.9537468435107,100.620099998035,โรงเรียนสังคีต,Mattayom Sangkeet Wittaya Bangkok School,838
31,1-24E,538E,main,back,15,838,13.9637513041054,100.620275824561,โรงพยาบาลแพทย์รังสิต,Pat Rangsit Hospital,932
31,1-24E,538E,main,back,16,932,13.99732892,100.6737668,มหาวิทยาลัยนอร์ทกรุงเทพ,North Bangkok University,5390
31,1-24E,538E,main,back,17,5390,14.013398180996,100.718709557393,หมู่บ้านสารินปาร์ค,Sarin Park Village,919
32,1-25,543,main,go,0,3883,13.86867548,100.5927775,ตรงข้ามอู่บางเขน,Bus Depot Bangkhen (Opposite),3112
32,1-25,543,main,go,1,3112,13.87799722,100.5979631,ตรงข้ามเทสโก้โลตัสพหลโยธิน,Tesco Lotus Phahon Yothin (Opposite),3114
32,1-25,543,main,go,2,3114,13.88365313,100.6013327,ซอยน้ำใส ซอยพหลโยธิน 61,Soi Namsai  Soi Phahon Yothin 61,3150
32,1-25,543,main,go,3,3150,13.89273133,100.606969,ตรงข้ามตลาดไทยณรงค์,Opposite Thai Narong Market,3146
32,1-25,543,main,go,4,3146,13.91026112,100.6173536,โรงพยาบาลภูมิพลอดุลยเดช,Bhumibol Adulydej Hospital,3132
32,1-25,543,main,go,5,3132,13.94330452,100.6234124,ตรงข้ามโรงพยาบาลบีแคร์,B.Care Medical Center Hospital,4674
32,1-25,543,main,go,6,4674,13.9432599645936,100.623825522386,โรงพยาบาลบีแคร์เมดิคอลเซ็นเตอร์,B.Care Medical Center,802
32,1-25,543,main,go,7,802,13.94954142,100.6260887,สนามกีฬาธูปะเตมี กองทัพอากาศ,Dhupateme Royal Thai Air Force Sports Stadium,5406
32,1-25,543,main,go,8,5406,13.9498409644624,100.625963812443,สนามยิงปืนกองทัพอากาศ,Royal Thai Air Force Shooting Range,802
32,1-25,543,main,go,9,802,13.94954142,100.6260887,สนามกีฬาธูปะเตมี กองทัพอากาศ,Dhupateme Royal Thai Air Force Sports Stadium,5406
32,1-25,543,main,go,10,5406,13.9498409644624,100.625963812443,สนามยิงปืนกองทัพอากาศ,Royal Thai Air Force Shooting Range,801
32,1-25,543,main,go,12,801,13.9517699640992,100.630002371051,วัดลาดสนุ่น,Wat Latsanoon,799
32,1-25,543,main,go,14,799,13.94916182,100.6428422,หมู่บ้านชัชวาลย์วงศ์,Muban Chatchawan Wong,5366
32,1-25,543,main,go,15,5366,13.9487483736218,100.643079692509,ตรงข้ามศูนย์โตโยต้า,Toyota Center (Opposite),5393
32,1-25,543,main,go,16,5393,13.9467735625698,100.642870553146,เทสโก้ โลตัส,Tesco Lotus,529
33,1-25,543,main,back,0,542,13.9348536736158,100.749480208912,สำนักงานเขตลำลูกกา,Lamlukka District Office,539
33,1-25,543,main,back,1,539,13.9347574915612,100.740143207824,หมู่บ้านฟ้าปิยรมย์,Fah Piyarom Village,538
33,1-25,543,main,back,2,538,13.934483823,100.73146707,บริษัทไทยไทโยจำกัด,Thai Taiyo Company Limited,788
33,1-25,543,main,back,3,788,13.9326482,100.684661,แยกลำลูกกาคลอง4,Yeak Lamlukka Khlong 4,527
33,1-25,543,main,back,4,527,13.9321096170203,100.664014787404,วิเชียรคลอง 3,Wichian Khlong 3,791
33,1-25,543,main,back,5,791,13.9318548,100.6644455,สนามชนไก่ในพล,Sanam Chon kai Naiphon,524
33,1-25,543,main,back,6,524,13.9323295298553,100.652984375439,ซอยสุนีย์,Soi Sunee,795
33,1-25,543,main,back,7,795,13.9364306889104,100.641568465439,โรงเรียนระเบียบ,Rabiab Wittaya School,797
33,1-25,543,main,back,8,797,13.9425630565482,100.64218898,ตรงข้ามเทศบาลคูคต,Khukhot Municipality (Opposite),518
33,1-25,543,main,back,9,518,13.9507959681713,100.633974928035,ซอยจามร 5,Soi Chamorn 5,800
33,1-25,543,main,back,10,800,13.950559936,100.63380472,ลำลูกกา 4 ซอยจามร,Lam Lukka 4 Soi Jamon,517
33,1-25,543,main,back,12,517,13.9498772309063,100.623700502176,ธูปเตมีย์,Thupatemi,3914
34,1-26,208L,main,go,0,3121,13.9024278,100.6123675,ตรงข้ามแยกวัดเกาะ,Opposite Wat Ko Intersection,3148
34,1-26,208L,main,go,1,3148,13.90219683,100.6125713,ซอยพหลโยธิน 54/1,Soi Phahonyothin 54/1,3151
34,1-26,208L,main,go,2,3151,13.89103221,100.6059487,บิ๊กซีสะพานใหม่,ฺBig C Saphan Mai,1687
34,1-26,208L,main,go,3,1687,13.8954775529809,100.660423413684,สุขาภิบาล 5 ซอย 48,Sukhaphiban 5 Soi 48,1744
35,1-26,208R,main,back,0,3122,13.90647455,100.6147333,ตรงข้ามช่องทางท่าดินแดง โรงเรียนเสนาธิการทหารอากาศ,Air Command and Staff College (Opposite),3147
36,1-27,90,main,go,0,769,13.99664137,100.5544465,ตรงข้ามซอยบ้านกลาง2/5,Opposite Soi Banklang 2/5,753
36,1-27,90,main,go,1,753,13.99360798,100.5511535,ถนนประตูน้ำเชียงราก,Pratunam Chiangrak Road,768
36,1-27,90,main,go,2,768,13.9939008070985,100.550976149963,วัดบางกระดี่(ขาออก),Wat Bang Kradi,753
36,1-27,90,main,go,3,753,13.99360798,100.5511535,ถนนประตูน้ำเชียงราก,Pratunam Chiangrak Road,3778
36,1-27,90,main,go,5,3778,13.906109,100.5043601,ตรงข้ามที่ทำการไปรษณีย์ห้าแยกปากเกร็ด,Post Office Pak Kret Intersection,2211
36,1-27,90,main,go,6,2211,13.8391752,100.5156532,Mrt แยกติวานนท์,Mrt Intersection Tiwanon ,2075
36,1-27,90,main,go,7,2075,13.8308521340292,100.53235507021,ตรงข้ามกรมยุทธบริการ ตรงข้ามสำนักงานทหารพัฒนา,Department of Strategic Services (Opposite),2082
36,1-27,90,main,go,8,2082,13.8304092498576,100.531915536527,กรมยุทธบริการ สำนักงานทหารพัฒนาหน่วยบัญชาการทหารพัฒนา,Department of Strategic Services,2076
36,1-27,90,main,go,9,2076,13.830978031928,100.53459379649,วิริยะประกันภัย ซอยรัชดาภิเษก 68,Viriyah Insurance (Ratchadaphisek 68),2081
36,1-27,90,main,go,10,2081,13.830673684,100.53418248,ซอยรัชดาภิเษก 39 ศิริชัยไก่ย่าง,Ratchadaphisek 39  Sirichai Chicken Grill,3031
36,1-27,90,main,go,11,3031,13.81950637,100.5589857,โรงเรียนหอวัง,Horwang School,3916
36,1-27,90,main,go,12,3916,13.79704684,100.55099104,แยกกำแพงเพชร,Junction Kamphaeng Phet,3818
37,1-27,90,main,back,0,5188,13.808054444,100.5481651,กฟน.จตุจักร,MEA Chatuchak,405
37,1-27,90,main,back,1,405,13.829198066,100.52969724,แยกวงศ์สว่าง,Wong Sawang Intersection,2074
37,1-27,90,main,back,2,2074,13.82954397,100.529578,หลังแยกวงศ์สว่าง,After Wongsawang Intersection,1057
37,1-27,90,main,back,3,1057,13.8513310947711,100.499976102386,หมู่บ้านเรวดี 3 ซอย 13,Rawadee 3 Soi 13 Village,2142
37,1-27,90,main,back,4,2142,13.85132875,100.4997038,ตรงข้ามหมู่บ้านเรวดี 3,Opposite Muban Rewadi 3,3778
37,1-27,90,main,back,5,3778,13.906109,100.5043601,ตรงข้ามที่ทำการไปรษณีย์ห้าแยกปากเกร็ด,Post Office Pak Kret Intersection,1310
37,1-27,90,main,back,6,1310,13.9369252242201,100.539109782386,หมู่บ้านมิตรประชา(ซอยติวานนท์-ปากเกร็ด46),Mith Pracha Village,1324
37,1-27,90,main,back,7,1324,13.93708254,100.5388744,ตรงข้ามหมู่บ้านมิตรประชา,Opposite Mitpracha Village,5574
37,1-27,90,main,back,8,5574,13.93688261,100.539135,หมู่บ้านมิตรประชา,Mitpracha Village ,5575
37,1-27,90,main,back,9,5575,13.9370571,100.5388475,ตรงข้ามหมู่บ้านมิตรประชา,Opposite Mitpracha Village,758
37,1-27,90,main,back,10,758,13.95812312,100.5508378,ซอยร่วมศักดิ์,Soi Ruam Sak,763
37,1-27,90,main,back,11,763,13.95809425,100.550531,ตรงข้ามซอยร่วมศักดิ์,Opposite Soi Ruam Sak,5558
37,1-27,90,main,back,12,5558,13.95810662,100.5508178,ซอยร่วมสุข,Soi Ruam Suk,5559
37,1-27,90,main,back,13,5559,13.95807589,100.5505481,ตรงข้ามซอยร่วมสุข,Opposite Soi Ruam Suk,753
37,1-27,90,main,back,14,753,13.99360798,100.5511535,ถนนประตูน้ำเชียงราก,Pratunam Chiangrak Road,768
38,1-28,210,main,go,0,846,13.96964808,100.6185721,เมืองเอก,Muang Aek,802
38,1-28,210,main,go,1,802,13.94954142,100.6260887,สนามกีฬาธูปะเตมี กองทัพอากาศ,Dhupateme Royal Thai Air Force Sports Stadium,5406
38,1-28,210,main,go,2,5406,13.9498409644624,100.625963812443,สนามยิงปืนกองทัพอากาศ,Royal Thai Air Force Shooting Range,801
38,1-28,210,main,go,3,801,13.9517699640992,100.630002371051,วัดลาดสนุ่น,Wat Latsanoon,799
38,1-28,210,main,go,5,799,13.94916182,100.6428422,หมู่บ้านชัชวาลย์วงศ์,Muban Chatchawan Wong,5366
38,1-28,210,main,go,6,5366,13.9487483736218,100.643079692509,ตรงข้ามศูนย์โตโยต้า,Toyota Center (Opposite),798
38,1-28,210,main,go,7,798,13.9479107650426,100.64271515979,ตรงข้ามโลตัสลำลูกกา,Tesco Lotus Lam Lukka,521
38,1-28,210,main,go,8,521,13.9419377161089,100.642384740148,เทศบาลคูคต,Municipal Khukhot,527
38,1-28,210,main,go,9,527,13.9321096170203,100.664014787404,วิเชียรคลอง 3,Wichian Khlong 3,791
38,1-28,210,main,go,10,791,13.9318548,100.6644455,สนามชนไก่ในพล,Sanam Chon kai Naiphon,1744
38,1-28,210,main,go,11,1744,13.9010106077876,100.664812304672,ออเงิน(เพิ่มสิน),Ao Ngoen,1681
38,1-28,210,main,go,12,1681,13.89934828,100.6632613,ตรงข้ามหมู่บ้านอรุณธร,Opposite Aruntorn Village,1743
38,1-28,210,main,go,13,1743,13.8964064226114,100.660751116527,สุขาภิบาล 5 ซอย 41,Sukhaphiban 5 Soi 41,3881
39,1-28,210,main,back,0,3882,13.87096344,100.5941541,การไฟฟ้าบางเขน กรมทหารราบที่11(ประตู1),Electricity Authority Bang Khen  11th Infantry Regiment (Gate 1),3881
39,1-28,210,main,back,1,3881,13.87413505,100.5975955,สถานีตำรวจบางเขน,Police Station Bangkhen,1688
39,1-28,210,main,back,2,1688,13.889052331919,100.656701413437,สุขาภิบาล 5 ซอย 40,Sukhaphiban 5 Soi 40,1687
39,1-28,210,main,back,3,1687,13.8954775529809,100.660423413684,สุขาภิบาล 5 ซอย 48,Sukhaphiban 5 Soi 48,1680
39,1-28,210,main,back,4,1680,13.90150637,100.6655719,ตรงข้ามถนนเพิ่มสิน,Opposite Phoemsin Road,527
39,1-28,210,main,back,5,527,13.9321096170203,100.664014787404,วิเชียรคลอง 3,Wichian Khlong 3,797
39,1-28,210,main,back,6,797,13.9425630565482,100.64218898,ตรงข้ามเทศบาลคูคต,Khukhot Municipality (Opposite),799
39,1-28,210,main,back,7,799,13.94916182,100.6428422,หมู่บ้านชัชวาลย์วงศ์,Muban Chatchawan Wong,802
39,1-28,210,main,back,8,802,13.94954142,100.6260887,สนามกีฬาธูปะเตมี กองทัพอากาศ,Dhupateme Royal Thai Air Force Sports Stadium,5406
39,1-28,210,main,back,9,5406,13.9498409644624,100.625963812443,สนามยิงปืนกองทัพอากาศ,Royal Thai Air Force Shooting Range,517
39,1-28,210,main,back,10,517,13.9498772309063,100.623700502176,ธูปเตมีย์,Thupatemi,844
39,1-28,210,main,back,11,844,13.9625027155869,100.619858754228,ตลาดสี่มุมเมือง,Simummuang Market,837
39,1-28,210,main,back,12,837,13.9692648451593,100.619257505649,ฟาร์มโชคชัย,Chokchai Farm,846
40,1-29,227,main,go,0,1603,13.860389155182,100.622566642633,หมู่บ้านเกาหลี,Korean Village,1608
40,1-29,227,main,go,2,1608,13.8518601784112,100.638374398245,วัชรพล(กม.5),Watchara Phon (Km.5),1622
40,1-29,227,main,go,3,1622,13.85138413,100.6385324,รามอินทรา กม.5 ขาเข้า,Ramintra Km.5 Inbound,1697
40,1-29,227,main,go,4,1697,13.83669309,100.6330267,สยาม เจมส์ เฮอริเทจ,Siam Gems Heritage,1698
40,1-29,227,main,go,5,1698,13.83281826,100.6308883,หมู่บ้านแกรนด์คริสตัล,Muban Grand Crystal,1729
40,1-29,227,main,go,6,1729,13.83346525,100.6306182,ตรงข้ามหมู่บ้านแกรนด์คริสตัล,Opposite Muban Grand Crystal,1699
40,1-29,227,main,go,7,1699,13.82235701,100.6270337,ถนนคลองลำเจียก,Khlong Lamchiak Road,1727
40,1-29,227,main,go,8,1727,13.81964777,100.6248751,ซอยประดิษฐ์มนูธรรม 23,Soi Pradit Manutham 23,1701
40,1-29,227,main,go,9,1701,13.81471538,100.6226914,ซอยโยธินพัฒนา 1,Soi Yothin Pattana 1,1703
40,1-29,227,main,go,10,1703,13.803585198,100.61676379,เชฟออโตแอนส์วีดีโอ cdc2,Chef Auto and VDO,3549
40,1-29,227,main,go,11,3549,13.78297423,100.6152042,สำนักงานเขตวังทองหลาง,Wangthonglang District,3573
40,1-29,227,main,go,12,3573,13.78266344,100.6152936,ซอยลาดพร้าว 106,Soi Lat Phrao 106,3555
40,1-29,227,main,go,13,3555,13.77606404,100.6275536,ลาดพร้าว 99,Lat Phrao 99,3567
40,1-29,227,main,go,14,3567,13.77585498,100.6274194,ลาดพร้าว 126,Ladprao 126,3560
40,1-29,227,main,go,15,3560,13.76758243,100.6421451,เดอะมอลล์บางกะปิ,The Mall Bangkapi,4012
41,1-29,227,main,back,0,4091,13.759570523,100.61814146,ตรงข้ามมหาวิทยาลัยรามคำแหง,Ramkhamhaeng Universitty (Opposite),3566
41,1-29,227,main,back,1,3566,13.77461488,100.6296655,ตรงข้ามซอยลาดพร้าว 101,Lat Phrao Soi 101 (Opposite),3551
41,1-29,227,main,back,2,3551,13.77997999,100.6205107,ซอยลาดพร้าว 93,Lat Phrao Soi 93,1756
41,1-29,227,main,back,3,1756,13.83561213,100.6316908,ถนนสุคนธสวัสดิ์,Sukhonthasawat Road,3881
42,1-2E,34E,main,go,0,845,13.9652621632142,100.619331864351,วัดประยูร หมู่บ้านสีวลี,Wat Prayoon   Sivalee Village,879
42,1-2E,34E,main,go,1,879,13.96569617,100.6198693,หมู่บ้านสิทธิโรจน์,Sitthirot Village,3133
42,1-2E,34E,main,go,2,3133,13.94871439,100.6229291,แยกลำลูกกา ตลาดลำลูกกา,Lam Luk Ka Intersection Lam Luk Ka Market,3127
42,1-2E,34E,main,go,3,3127,13.92166389,100.6237673,ตรงข้ามโรงเรียนนายเรืออากาศ,Royal Thai Air Force Academy (Opposite),3145
42,1-2E,34E,main,go,4,3145,13.91267927,100.618764,สโมสรทหารอากาศ หอประชุมกองทัพอากาศ,Air Force Club,1628
42,1-2E,34E,main,go,5,1628,13.8634845965717,100.616036176527,แยกลาดปลาเค้า(ศูนย์การค้ารามอินทรา),Lat Plakhao Intersection (Ramintra Center),1608
42,1-2E,34E,main,go,8,1608,13.8518601784112,100.638374398245,วัชรพล(กม.5),Watchara Phon (Km.5),1766
42,1-2E,34E,main,go,9,1766,13.8399363698854,100.633965143053,ซอยอยู่เย็น,Soi Yu Yen,1729
42,1-2E,34E,main,go,10,1729,13.83346525,100.6306182,ตรงข้ามหมู่บ้านแกรนด์คริสตัล,Opposite Muban Grand Crystal,1728
42,1-2E,34E,main,go,11,1728,13.82150059,100.625904,ซอยประดิษฐ์มนูธรรม 25,Soi Pradit Manutham 25,1727
42,1-2E,34E,main,go,12,1727,13.81964777,100.6248751,ซอยประดิษฐ์มนูธรรม 23,Soi Pradit Manutham 23,5396
42,1-2E,34E,main,go,13,5396,13.7814246020454,100.607980769209,ร้านอุดมเฟอร์นิเจอร์,Udom Furniture Store,1709
42,1-2E,34E,main,go,14,1709,13.7718842941521,100.607027946613,เดอวิลเลจอินทาวส์,De Village in Town,2692
42,1-2E,34E,main,go,15,2692,13.75275961,100.5904515,วิลล่าคาเฟ่ พระราม 9 ซอย 19,Ville Cafe,2649
42,1-2E,34E,main,go,16,2649,13.75312792,100.5642295,ใต้ทางด่วนพระราม 9 [A],Rama 9 (Under Expressway) [A],3443
42,1-2E,34E,main,go,17,3443,13.76337945,100.5446651,สำนักงาน ป.ป.ส.,Office of the Narcotics Control Board,3442
42,1-2E,34E,main,go,18,3442,13.76385264,100.5409513,ตรงข้ามสวนสันติภาพ,Santiphap Park (Opposite),4154
42,1-2E,34E,main,go,19,4154,13.765730509,100.53802991,อนุสาวรีย์ชัยสมรภูมิ (เกาะพหลโยธิน),Victory Monument (Phahon Yothin),4155
42,1-2E,34E,main,go,21,4155,13.765096538,100.53906206,อนุสาวรีย์ชัยสมรภูมิ (เกาะดินแดง),Victory Monument (Din Daeng),4156
42,1-2E,34E,main,go,23,4156,13.7641730616197,100.538548058925,อนุสาวรีย์ชัยสมรภูมิ (เกาะพญาไท),Victory Monument (Phaya Thai),4157
42,1-2E,34E,main,go,24,4157,13.764621093,100.53744871,อนุสาวรีย์ชัยสมรภูมิ (เกาะราชวิถี),Victory Monument (Ratchawithi),2712
42,1-2E,34E,main,go,25,2712,13.75540065,100.5328633,พญาไทพลาซ่า,Phayathai Plaza,2717
42,1-2E,34E,main,go,26,2717,13.75477089,100.5327241,กรมปศุสัตว์,Department of Livestock Development,4786
42,1-2E,34E,main,go,27,4786,13.7361227,100.52910695,จุฬาลงกรณ์มหาวิทยาลัย (คณะนิติศาสตร์),Chulalongkorn University (Facalty of Law),4817
42,1-2E,34E,main,go,28,4817,13.7359864927281,100.529358157824,จุฬาลงกรณ์มหาวิทยาลัย (คณะวิทยาศาสตร์),Chulalongkorn University (Faculty of Science),5085
42,1-2E,34E,main,go,29,5085,13.736467704,100.52167271,แยกสะพานเหลือง (ขาเข้า),Lueang Bridge Intersection,4596
42,1-2E,34E,main,go,31,4596,13.738683035,100.5170285,สถานีรถไฟหัวลำโพง(ฝั่งรองเมือง),Train Station Hua Lamphong,4749
42,1-2E,34E,main,go,33,4749,13.73965572,100.51629654,สถานีรถไฟหัวลำโพง,Bangkok Hua Lamphong Railway Station,4668
42,1-2E,34E,main,go,34,4668,13.740274628,100.51583424,ท่าปล่อยรถ หัวลำโพง,Bus Terminal ua Lamphong,4749
43,1-2E,34E,main,back,0,4749,13.73965572,100.51629654,สถานีรถไฟหัวลำโพง,Bangkok Hua Lamphong Railway Station,4668
43,1-2E,34E,main,back,1,4668,13.740274628,100.51583424,ท่าปล่อยรถ หัวลำโพง,Bus Terminal ua Lamphong,4749
43,1-2E,34E,main,back,2,4749,13.73965572,100.51629654,สถานีรถไฟหัวลำโพง,Bangkok Hua Lamphong Railway Station,4596
43,1-2E,34E,main,back,4,4596,13.738683035,100.5170285,สถานีรถไฟหัวลำโพง(ฝั่งรองเมือง),Train Station Hua Lamphong,4050
43,1-2E,34E,main,back,5,4050,13.7363589148095,100.519588801088,ศาลแรงงานกลาง,Central Labour Court,4814
43,1-2E,34E,main,back,6,4814,13.7365093249397,100.520049735439,แยกมหานคร  ตรงข้ามศาลแรงงานกลาง,Opposite Central Labor Court,3071
43,1-2E,34E,main,back,7,3071,13.73419817,100.5288353,สามย่านมิตรทาวน์,Sam Yan Mit Town,2713
43,1-2E,34E,main,back,8,2713,13.76128073,100.5361413,กรมแพทย์ทหารบก,Army Medical Department,4157
43,1-2E,34E,main,back,10,4157,13.764621093,100.53744871,อนุสาวรีย์ชัยสมรภูมิ (เกาะราชวิถี),Victory Monument (Ratchawithi),4154
43,1-2E,34E,main,back,12,4154,13.765730509,100.53802991,อนุสาวรีย์ชัยสมรภูมิ (เกาะพหลโยธิน),Victory Monument (Phahon Yothin),4155
43,1-2E,34E,main,back,14,4155,13.765096538,100.53906206,อนุสาวรีย์ชัยสมรภูมิ (เกาะดินแดง),Victory Monument (Din Daeng),4156
43,1-2E,34E,main,back,15,4156,13.7641730616197,100.538548058925,อนุสาวรีย์ชัยสมรภูมิ (เกาะพญาไท),Victory Monument (Phaya Thai),3420
43,1-2E,34E,main,back,17,3420,13.76375373,100.5406369,สวนสันติภาพ,Santiphap Park,3442
43,1-2E,34E,main,back,18,3442,13.76385264,100.5409513,ตรงข้ามสวนสันติภาพ,Santiphap Park (Opposite),3443
43,1-2E,34E,main,back,19,3443,13.76337945,100.5446651,สำนักงาน ป.ป.ส.,Office of the Narcotics Control Board,3444
43,1-2E,34E,main,back,20,3444,13.76246339,100.5511271,แฟลตดินแดงป้าย2,Din Daeng Flat Label 2,2027
43,1-2E,34E,main,back,21,2027,13.759821093,100.55596787,โบสถ์แม่พระฟาติมา,Fatima Catholic Church,2026
43,1-2E,34E,main,back,22,2026,13.7568624525522,100.558024528702,ตรงข้ามตลาดขวัญพัฒนา,Khwan Phatthana Market (Opposite),2029
43,1-2E,34E,main,back,23,2029,13.757175111353,100.558026991236,ตลาดขวัญพัฒนา,Khwan Phatthana Market,2026
43,1-2E,34E,main,back,24,2026,13.7568624525522,100.558024528702,ตรงข้ามตลาดขวัญพัฒนา,Khwan Phatthana Market (Opposite),2688
43,1-2E,34E,main,back,25,2688,13.75599064,100.5679754,แยก อ.ส.ม.ท. พระราม 9 ซอย 5,MCOT Intersection (Soi 5),4256
43,1-2E,34E,main,back,26,4256,13.7554558501869,100.571521627588,อาคารวรสมบัติ,Worasombat Building,1713
43,1-2E,34E,main,back,27,1713,13.7604531582048,100.59729338597,สถานีนวสี(สายสีเทา),Nawasi Station (Gray Line),1718
43,1-2E,34E,main,back,28,1718,13.7757247,100.6065906,ซอยประดิษฐ์มนูธรรม 3,Soi Pradit Manutham 3,1725
43,1-2E,34E,main,back,29,1725,13.8111180578499,100.619792542176,The Crystal,The Crystal,1698
43,1-2E,34E,main,back,30,1698,13.83281826,100.6308883,หมู่บ้านแกรนด์คริสตัล,Muban Grand Crystal,1756
43,1-2E,34E,main,back,31,1756,13.83561213,100.6316908,ถนนสุคนธสวัสดิ์,Sukhonthasawat Road,1766
43,1-2E,34E,main,back,32,1766,13.8399363698854,100.633965143053,ซอยอยู่เย็น,Soi Yu Yen,1695
43,1-2E,34E,main,back,33,1695,13.8438849561635,100.636710771298,หมู่บ้านมณียาซอย 4,Mani ya Village Soi 4,1731
43,1-2E,34E,main,back,34,1731,13.84382692,100.6359669,รามอินทรา 34 แยก19/1,Ramintra 34 yaek19/1,1607
43,1-2E,34E,main,back,35,1607,13.8537056153986,100.634900628912,กองบินตำรวจ,Police Aviation Division,1623
43,1-2E,34E,main,back,36,1623,13.8535494620001,100.634454528912,ตรงข้ามกองบินตำรวจ,Police Aviation Division (Opposite),1626
43,1-2E,34E,main,back,37,1626,13.8596980262384,100.623150211088,ตรงข้ามหมู่บ้านเกาหลี,Korean Village (Opposite),3881
43,1-2E,34E,main,back,38,3881,13.87413505,100.5975955,สถานีตำรวจบางเขน,Police Station Bangkhen,3122
43,1-2E,34E,main,back,39,3122,13.90647455,100.6147333,ตรงข้ามช่องทางท่าดินแดง โรงเรียนเสนาธิการทหารอากาศ,Air Command and Staff College (Opposite),3147
43,1-2E,34E,main,back,40,3147,13.90628709,100.6149969,แยกท่าดินแดง ตรงข้ามโรงเรียนเสนาธิการทหารอากาศ,Ding Daeng Peir Intersection,3131
43,1-2E,34E,main,back,41,3131,13.93994556,100.6240452,หมู่บ้านการ์เด้นโฮม ตรงข้ามซอย 39,Garden Home Village,3136
43,1-2E,34E,main,back,42,3136,13.93941201,100.6245674,หมู่บ้านการ์เด้นโฮม,Garden Home Village,846
44,1-3,34,main,go,0,3914,13.869471736,100.5924624,อู่บางเขน,Bus Depot Bangkhen,3913
44,1-3,34,main,go,1,3913,13.8650403693978,100.590319945439,ซอยพหลโยธิน 49/2,Soi Phahonyothin 49/2,3111
44,1-3,34,main,go,2,3111,13.85631023,100.5851877,โรงเรียนบางบัว,Bangbua School,3887
44,1-3,34,main,go,3,3887,13.85596644,100.5853648,วัดบางบัว,Wat Bangbua,3803
44,1-3,34,main,go,4,3803,13.83793424,100.574706,ตรงข้ามตลาดอมรพันธ์,Opposite Amornphan,3828
44,1-3,34,main,go,5,3828,13.83823264,100.5745745,กรมพัฒนาที่ดิน,Land Development Department,3814
44,1-3,34,main,go,6,3814,13.80226889,100.5537518,หมอชิต,Morchit,4613
44,1-3,34,main,go,7,4613,13.802678363,100.55348542,สวนจตุจักร,Chatuchak Park,3916
44,1-3,34,main,go,8,3916,13.79704684,100.55099104,แยกกำแพงเพชร,Junction Kamphaeng Phet,3441
44,1-3,34,main,go,9,3441,13.77097878,100.5296709,ซอยสวนเงิน,Soi Suan Ngoen,4316
44,1-3,34,main,go,10,4316,13.771214154,100.52935478,บ้านราชวิถี(ฝั่งพระรามที่6),Rajvithi Home (Rama 6),1791
44,1-3,34,main,go,11,1791,13.7557627594802,100.524396232176,อุรุพงษ์,Urupong,4827
44,1-3,34,main,go,12,4827,13.755889019,100.52466893,อุรุพงษ์ โคลีเซียม (ถนนเพชรบุรีขาออก),Urupong,3074
44,1-3,34,main,go,13,3074,13.74443737,100.5303527,มาบุญครอง,MBK Center,4786
44,1-3,34,main,go,14,4786,13.7361227,100.52910695,จุฬาลงกรณ์มหาวิทยาลัย (คณะนิติศาสตร์),Chulalongkorn University (Facalty of Law),4817
44,1-3,34,main,go,15,4817,13.7359864927281,100.529358157824,จุฬาลงกรณ์มหาวิทยาลัย (คณะวิทยาศาสตร์),Chulalongkorn University (Faculty of Science),4596
44,1-3,34,main,go,16,4596,13.738683035,100.5170285,สถานีรถไฟหัวลำโพง(ฝั่งรองเมือง),Train Station Hua Lamphong,4749
44,1-3,34,main,go,18,4749,13.73965572,100.51629654,สถานีรถไฟหัวลำโพง,Bangkok Hua Lamphong Railway Station,4668
44,1-3,34,main,go,20,4668,13.740274628,100.51583424,ท่าปล่อยรถ หัวลำโพง,Bus Terminal ua Lamphong,4749
45,1-3,34,main,back,2,4749,13.73965572,100.51629654,สถานีรถไฟหัวลำโพง,Bangkok Hua Lamphong Railway Station,4668
45,1-3,34,main,back,3,4668,13.740274628,100.51583424,ท่าปล่อยรถ หัวลำโพง,Bus Terminal ua Lamphong,4749
45,1-3,34,main,back,4,4749,13.73965572,100.51629654,สถานีรถไฟหัวลำโพง,Bangkok Hua Lamphong Railway Station,4596
45,1-3,34,main,back,6,4596,13.738683035,100.5170285,สถานีรถไฟหัวลำโพง(ฝั่งรองเมือง),Train Station Hua Lamphong,4050
45,1-3,34,main,back,7,4050,13.7363589148095,100.519588801088,ศาลแรงงานกลาง,Central Labour Court,4054
45,1-3,34,main,back,8,4054,13.7349351394535,100.523934186563,จุฬาลงกรณ์ 9,Chulalongkorn 9,3070
45,1-3,34,main,back,9,3070,13.73417265,100.5290998,ป้ายรถประจำทาง สามย่าน,Sam Yan bus stop,3071
45,1-3,34,main,back,10,3071,13.73419817,100.5288353,สามย่านมิตรทาวน์,Sam Yan Mit Town,3068
45,1-3,34,main,back,11,3068,13.74051302,100.5300672,ป้ายรถประจำทาง โรงเรียนเตรียมอุดม,Bus stopTriamudom School,4283
45,1-3,34,main,back,12,4283,13.7873718888552,100.535951177651,อาคารทิปโก้,Tipco Building,511
45,1-3,34,main,back,13,511,13.7943644667206,100.538974256737,แยกประดิพัทธ์(ตรงข้ามซอย43),Pradipat Intersection (Opposite Soi 43),3811
45,1-3,34,main,back,14,3811,13.81540659,100.5614695,ตรงข้ามเซ็นทรัลลาดพร้าว,Central Ladprao,3913
46,1-30,256L,main,go,0,4818,13.8914391755152,100.564704947614,ศูนย์ราชการแจ้งวัฒนะ(อาคารA),Government Complex (A Building),1591
46,1-30,256L,main,go,1,1591,13.888455325,100.57436668,ตรงข้ามTOTสำนักงานใหญ่,TOT Headquarters (Opposite),1638
46,1-30,256L,main,go,2,1638,13.8879068636792,100.574593488455,TOTสำนักงานใหญ่,TOT Headquarters,1986
47,1-30,256R,main,back,0,1989,13.9058626549837,100.523868284561,ตรงข้ามหมู่บ้านสี่ไชยทอง,Srichaithong Village (Opposite),2006
47,1-30,256R,main,back,1,2006,13.9054932284576,100.524213742633,ซอยหมู่บ้านสี่ไชยทอง,Soi Muban Srichaithong,2007
47,1-30,256R,main,back,2,2007,13.90655167,100.5125594,ซอยแจ้งวัฒนะ-ปากเกร็ด 20,Soi Chaengwatthana - Pakkret 20,906
47,1-30,256R,main,back,3,906,13.9221801678624,100.60239130021,วัดดอนเมือง,Wat Don Mueang,887
47,1-30,256R,main,back,4,887,13.921964458,100.60279013,ดอนเมือง(สำนักงานท่าอากาศยาน),Don Mueang (Airport Office),906
47,1-30,256R,main,back,5,906,13.9221801678624,100.60239130021,วัดดอนเมือง,Wat Don Mueang,4185
47,1-30,256R,main,back,6,4185,13.911512797,100.59696091,ดอนเมือง(คลังสินค้า),Don Mueang (Cargo),4174
47,1-30,256R,main,back,7,4174,13.8948683975101,100.588056333684,คอตโต้,Cotto,1591
48,1-31,229,main,go,1,1383,14.0653187017124,100.616999419543,บางขัน,Bangkhun,1372
48,1-31,229,main,go,2,1372,14.0447698447305,100.616895436947,ตรงข้ามกอล์ฟแมนชั่น,Golf Mansion (Opposite),1380
48,1-31,229,main,go,3,1380,14.04488251,100.6162506,มูลนิธิรวมชัยพัฒนา,Ruamchai Phatthana Foundation,1378
48,1-31,229,main,go,4,1378,14.030411826,100.61569179,ตรงข้ามสุเหร่าแก้วนิมิตร,Kaeo Nimit Mosque (Opposite),3146
49,1-31,229,main,back,0,1640,13.8905147548541,100.56739951,กรมการกงสุล,Department of Consular Affairs,1638
49,1-31,229,main,back,1,1638,13.8879068636792,100.574593488455,TOTสำนักงานใหญ่,TOT Headquarters,3116
49,1-31,229,main,back,2,3116,13.88689841,100.6032276,ตรงข้ามซอยสายหยุด,Soi Saiyut (Opposite),3153
49,1-31,229,main,back,3,3153,13.88664218,100.6033917,ซอยสายหยุด,Soi Sai Yut,3143
49,1-31,229,main,back,4,3143,13.91900137,100.622498,หอประชุมกานตรัตน์,Kantarat Convention Hall,877
49,1-31,229,main,back,5,877,13.9907599567847,100.615508837861,ฟิวเจอร์ปาร์ครังสิต,Future Park Rangsit,4189
49,1-31,229,main,back,6,4189,13.998120015,100.61456294,โฮยา,Hoya,4193
49,1-31,229,main,back,7,4193,14.0094272935711,100.614926726527,ซอยประทานพร ตรงข้ามโรงงานกษาปณ์,Soi Prathan Phon  Royal Thai Mint (Opposite),4934
49,1-31,229,main,back,8,4934,14.0092512875372,100.615553045766,โรงกษาปณ์,Royal Thai Mint,5370
50,1-32E,106E,main,go,0,3883,13.86867548,100.5927775,ตรงข้ามอู่บางเขน,Bus Depot Bangkhen (Opposite),3914
50,1-32E,106E,main,go,1,3914,13.869471736,100.5924624,อู่บางเขน,Bus Depot Bangkhen,5330
50,1-32E,106E,main,go,2,5330,13.867737502,100.59190043,ซอยพหลโยธิน 53,Soi Phaholyothin 53,3156
50,1-32E,106E,main,go,4,3156,13.84021007,100.5768751,กัญญาเพลส อพาร์ทเม้นท์,Kanya Place Apartment,2169
50,1-32E,106E,main,go,5,2169,13.8416244678862,100.593487459333,ตรงข้ามร้านอาหารเมนูเวเทอเรส,The Terrace Restaurent (Opposite),2167
50,1-32E,106E,main,go,6,2167,13.84101808,100.5963166,ก่อนถึงแยกลาดปลาเค้า-ประเสริฐมนูกิจขาเข้า,Before Latplakhao-Prasoet Manukit Intersection Inbound,2199
50,1-32E,106E,main,go,7,2199,13.84130627,100.5964979,หลังจากแยกลาดปลาเค้า-ประเสริฐมนูกิจขาออก,After Latplakhao - Prasoet Manukit Intersection Outbound,1726
50,1-32E,106E,main,go,8,1726,13.81453008,100.6217979,หมู่บ้านสิริตวารา,Siritavara Village,5396
50,1-32E,106E,main,go,9,5396,13.7814246020454,100.607980769209,ร้านอุดมเฟอร์นิเจอร์,Udom Furniture Store,1718
50,1-32E,106E,main,go,10,1718,13.7757247,100.6065906,ซอยประดิษฐ์มนูธรรม 3,Soi Pradit Manutham 3,1709
50,1-32E,106E,main,go,11,1709,13.7718842941521,100.607027946613,เดอวิลเลจอินทาวส์,De Village in Town,3443
50,1-32E,106E,main,go,12,3443,13.76337945,100.5446651,สำนักงาน ป.ป.ส.,Office of the Narcotics Control Board,3441
50,1-32E,106E,main,go,13,3441,13.77097878,100.5296709,ซอยสวนเงิน,Soi Suan Ngoen,4316
50,1-32E,106E,main,go,14,4316,13.771214154,100.52935478,บ้านราชวิถี(ฝั่งพระรามที่6),Rajvithi Home (Rama 6),650
50,1-32E,106E,main,go,15,650,13.75749787,100.5242289,ตรงข้ามโรงแรมกรุงเทพมิดทาวน์,Opposite Bangkok midtown hotel,2091
50,1-32E,106E,main,go,16,2091,13.7574985773741,100.523812244982,แยกอุรุพงษ์ โคลีเซี่ยม,Uruphong Intersection,1579
50,1-32E,106E,main,go,17,1579,13.747817413,100.52197054,วัดชัยมงคล แยกเจริญผล,Wat Chai Mongkhon,2904
50,1-32E,106E,main,go,18,2904,13.74776521,100.521613,ตรงข้ามวัดชัยมงคล พระราม 1,Opposite Chai Mongkhon Rama 1 Temple,4050
50,1-32E,106E,main,go,19,4050,13.7363589148095,100.519588801088,ศาลแรงงานกลาง,Central Labour Court,375
50,1-32E,106E,main,go,20,375,13.7226987076588,100.517574444314,ตรงข้ามโรงพยาบาลเลิดสิน,Lerdsin Hospital (Opposite),372
50,1-32E,106E,main,go,21,372,13.720175148,100.50865965,สะพานตากสิน,Taksin Bridge,2996
50,1-32E,106E,main,go,22,2996,13.71973941,100.5087185,ท่าน้ำเป๊ปซี่,Pepsi pier,1953
50,1-32E,106E,main,go,23,1953,13.729319963,100.476055,ตลาดท่าพระรุ่งเรือง,Thaphra Rungrueng Market,3660
50,1-32E,106E,main,go,24,3660,13.72752671,100.4753612,หลังแยกท่าพระ ฝั่งรัชดาภิเษก,After Tha Phra intersectionRatchadaphisek side,4917
51,1-32E,106E,main,back,0,4679,13.715455074,100.47733251,ท่าปล่อยรถ เดอะมอลล์ท่าพระ,The Mall Tha Phra Bus Terminal,4440
51,1-32E,106E,main,back,1,4440,13.740550716,100.52046411,เจริญเมือง,Charoen Mueang,2904
51,1-32E,106E,main,back,2,2904,13.74776521,100.521613,ตรงข้ามวัดชัยมงคล พระราม 1,Opposite Chai Mongkhon Rama 1 Temple,1578
51,1-32E,106E,main,back,3,1578,13.7527298048383,100.522255470631,พระยายัง,Phraya Yang,650
51,1-32E,106E,main,back,4,650,13.75749787,100.5242289,ตรงข้ามโรงแรมกรุงเทพมิดทาวน์,Opposite Bangkok midtown hotel,2091
51,1-32E,106E,main,back,5,2091,13.7574985773741,100.523812244982,แยกอุรุพงษ์ โคลีเซี่ยม,Uruphong Intersection,3443
51,1-32E,106E,main,back,6,3443,13.76337945,100.5446651,สำนักงาน ป.ป.ส.,Office of the Narcotics Control Board,1713
51,1-32E,106E,main,back,7,1713,13.7604531582048,100.59729338597,สถานีนวสี(สายสีเทา),Nawasi Station (Gray Line),1714
51,1-32E,106E,main,back,8,1714,13.7631325645937,100.598599772633,คลินิคศูนย์แพทย์พัฒนา,Medical Development Clinic,1724
51,1-32E,106E,main,back,9,1724,13.80755035,100.6179802,ซอยประดิษฐ์มนูธรรม 19,Soi Pradit Manutham 19,1725
51,1-32E,106E,main,back,10,1725,13.8111180578499,100.619792542176,The Crystal,The Crystal,2206
51,1-32E,106E,main,back,11,2206,13.830237238,100.62163968,ซอยสุคนธสวัสดิ์ 17,Soi Sukhontha Sawat 17,2167
51,1-32E,106E,main,back,12,2167,13.84101808,100.5963166,ก่อนถึงแยกลาดปลาเค้า-ประเสริฐมนูกิจขาเข้า,Before Latplakhao-Prasoet Manukit Intersection Inbound,2199
52,1-33,154,main,go,0,3881,13.87413505,100.5975955,สถานีตำรวจบางเขน,Police Station Bangkhen,1600
52,1-33,154,main,go,1,1600,13.8668383815986,100.610578042176,ตรงข้ามสนามมวยลุมพินีรามอินทรา,Lumpinee Stadium (Opposite),1629
52,1-33,154,main,go,2,1629,13.86654361,100.61039969,สนามมวยลุมพินีรามอินทรา,Lumpinee Stadium,2169
52,1-33,154,main,go,3,2169,13.8416244678862,100.593487459333,ตรงข้ามร้านอาหารเมนูเวเทอเรส,The Terrace Restaurent (Opposite),3159
52,1-33,154,main,go,4,3159,13.84081611,100.5873306,ตรงข้ามร้านก๋วยเตี๋ยวเย็นตาโฟฟ้าผ่า,Lightning Yentafo Noodle (Opposite),3157
52,1-33,154,main,go,5,3157,13.84075874,100.581207,โตโยต้าบัสส์ เกษตร-นวมินทร์ ขาออก,Toyota Bus Kaset-Nawamin,3160
52,1-33,154,main,go,6,3160,13.84042143,100.5810927,โตโยต้าบัสส์ เกษตร-นวมินทร์ ขาเข้า,Toyota Bus Kaset-Nawamin inbound,3041
52,1-33,154,main,go,7,3041,13.833139,100.5570313,กองกำกับการสายตรวจ,Patrol,2078
53,1-33,154,main,back,0,1437,13.805823249357,100.532452744561,ตรงข้ามหลังตลาดเตาปูน เฉลิมพันธ์เก่า,Tao Poon Market Behind (Opposite),628
53,1-33,154,main,back,1,628,13.824480707,100.53769741,ซอยเสริมสุข,Soi Soem Suk,639
53,1-33,154,main,back,2,639,13.824018395,100.53739468,ตรงข้ามซอยเสริมสุข,Soi Soem Suk (Opposite),2207
53,1-33,154,main,back,3,2207,13.830202846,100.54448458,หมู่บ้านปูนซีเมนต์ 2,Pun Cement Village 2,3041
53,1-33,154,main,back,4,3041,13.833139,100.5570313,กองกำกับการสายตรวจ,Patrol,3042
53,1-33,154,main,back,5,3042,13.83959843,100.5574017,วัดเสมียนนารี,Wat Samian Nari,3027
53,1-33,154,main,back,6,3027,13.84503508,100.5606097,โรงพยาบาลวิภาวดีถนนวิภาวดีรังสิต,Vibhavadi Hospital,3156
53,1-33,154,main,back,8,3156,13.84021007,100.5768751,กัญญาเพลส อพาร์ทเม้นท์,Kanya Place Apartment,2197
53,1-33,154,main,back,9,2197,13.842108702188,100.592902375649,ร้านอาหารเมนูเวเทอเรส,The Terrace Restaurent,2169
53,1-33,154,main,back,10,2169,13.8416244678862,100.593487459333,ตรงข้ามร้านอาหารเมนูเวเทอเรส,The Terrace Restaurent (Opposite),3881
54,1-34,543A,main,go,0,3883,13.86867548,100.5927775,ตรงข้ามอู่บางเขน,Bus Depot Bangkhen (Opposite),3914
54,1-34,543A,main,go,1,3914,13.869471736,100.5924624,อู่บางเขน,Bus Depot Bangkhen,4764
54,1-34,543A,main,go,2,4764,13.8686118462799,100.592430315649,หน้าอู่บางเขน,Bus Depot Bangkhen,3886
55,1-34,543A,main,back,0,1591,13.888455325,100.57436668,ตรงข้ามTOTสำนักงานใหญ่,TOT Headquarters (Opposite),664
55,1-34,543A,main,back,1,664,13.8552268250072,100.544955553473,แยกพงษ์เพชร,Phong Phet Intersection,1254
55,1-34,543A,main,back,2,1254,13.8566735387985,100.545031265439,แยกพงษ์เพชร,Pong Phet Intersection,3107
55,1-34,543A,main,back,3,3107,13.84953259,100.5152884,สำนักงานสรรพากรภาค 4,Revenue Office Region 4,3104
55,1-34,543A,main,back,4,3104,13.84377395,100.5094046,ตรงข้ามโรงเรียนวัดลานนาบุญ,Wat Lannabun School (Opposite),3166
55,1-34,543A,main,back,5,3166,13.84362435,100.5095475,โรงเรียนวัดลานนาบุญ,Wat Lannabun School,5228
55,1-34,543A,main,back,6,5228,13.843820484,100.50943276,ตรงข้ามวัดลานนาบุญ,Wat Laannabun (Opposite),3099
55,1-34,543A,main,back,7,3099,13.84055767,100.4962176,ตลาดนนท์,Non Market,3315
55,1-34,543A,main,back,8,3315,13.8336894429334,100.50014855293,ตรงข้ามวัดนครอินทร์,Wat Nakorn-in (Opposite),3410
55,1-34,543A,main,back,9,3410,13.83050545,100.5011674,ซอยพิบูลสงคราม 9,Soi Pibulsongkram 9,3320
55,1-34,543A,main,back,10,3320,13.82596416,100.5033162,ซอยแสนสุข,Soi Saensuk,3321
55,1-34,543A,main,back,11,3321,13.82483059,100.5036635,หมู่บ้านพิบูลย์พาร์ควิลล์,Piboon Park Village,3404
55,1-34,543A,main,back,12,3404,13.81946344,100.5108197,พูลพิพัฒน์,Poolpipat,1408
55,1-34,543A,main,back,13,1408,13.81783923,100.5158584,แยกพิบูลสงคราม,Yaek Pibulsongkram,2074
55,1-34,543A,main,back,14,2074,13.82954397,100.529578,หลังแยกวงศ์สว่าง,After Wongsawang Intersection,2075
55,1-34,543A,main,back,15,2075,13.8308521340292,100.53235507021,ตรงข้ามกรมยุทธบริการ ตรงข้ามสำนักงานทหารพัฒนา,Department of Strategic Services (Opposite),2082
55,1-34,543A,main,back,16,2082,13.8304092498576,100.531915536527,กรมยุทธบริการ สำนักงานทหารพัฒนาหน่วยบัญชาการทหารพัฒนา,Department of Strategic Services,2078
55,1-34,543A,main,back,17,2078,13.8303319453722,100.542541941545,ซีเมนต์ไทย1 ทางด่วน ซอยรัชดาภิเษก 60,Cement Thai1  Ratchadaphisek 60,3885
56,1-35E,26E,main,go,0,4140,13.813025527,100.72820742,ตลาดมีนบุรี(ตลาดสด),Minburi Market (Fresh Market),4678
56,1-35E,26E,main,go,1,4678,13.812874,100.708,ซอยรามอินทรา 119,Soi Ram Inthra 119,5014
56,1-35E,26E,main,go,2,5014,13.812601581,100.70816536,รามอินทรา 84,Ramintra 84,4271
56,1-35E,26E,main,go,3,4271,13.8247581152508,100.677359008492,แฟชั่นไอส์แลนด์,Fashion Island,3215
56,1-35E,26E,main,go,4,3215,13.83201057,100.6691115,ซอยชื่นกมล ตรงข้ามศูนย์โตโยต้าชัวร์,Soi chuen kamon,1697
56,1-35E,26E,main,go,5,1697,13.83669309,100.6330267,สยาม เจมส์ เฮอริเทจ,Siam Gems Heritage,1730
56,1-35E,26E,main,go,6,1730,13.8376649394087,100.632770219122,ซอยประดิษฐ์มนูธรรม 29,Pradit Manutham Soi 29,1698
56,1-35E,26E,main,go,7,1698,13.83281826,100.6308883,หมู่บ้านแกรนด์คริสตัล,Muban Grand Crystal,1699
56,1-35E,26E,main,go,8,1699,13.82235701,100.6270337,ถนนคลองลำเจียก,Khlong Lamchiak Road,1727
56,1-35E,26E,main,go,9,1727,13.81964777,100.6248751,ซอยประดิษฐ์มนูธรรม 23,Soi Pradit Manutham 23,1703
56,1-35E,26E,main,go,10,1703,13.803585198,100.61676379,เชฟออโตแอนส์วีดีโอ cdc2,Chef Auto and VDO,1723
56,1-35E,26E,main,go,11,1723,13.8040738675824,100.616405167614,ซอยจิณณวัตรตรงข้ามcdc,Soi Chinnawat,1714
56,1-35E,26E,main,go,12,1714,13.7631325645937,100.598599772633,คลินิคศูนย์แพทย์พัฒนา,Medical Development Clinic,3443
56,1-35E,26E,main,go,13,3443,13.76337945,100.5446651,สำนักงาน ป.ป.ส.,Office of the Narcotics Control Board,4154
56,1-35E,26E,main,go,14,4154,13.765730509,100.53802991,อนุสาวรีย์ชัยสมรภูมิ (เกาะพหลโยธิน),Victory Monument (Phahon Yothin),4155
56,1-35E,26E,main,go,16,4155,13.765096538,100.53906206,อนุสาวรีย์ชัยสมรภูมิ (เกาะดินแดง),Victory Monument (Din Daeng),4156
56,1-35E,26E,main,go,18,4156,13.7641730616197,100.538548058925,อนุสาวรีย์ชัยสมรภูมิ (เกาะพญาไท),Victory Monument (Phaya Thai),4157
56,1-35E,26E,main,go,19,4157,13.764621093,100.53744871,อนุสาวรีย์ชัยสมรภูมิ (เกาะราชวิถี),Victory Monument (Ratchawithi),4154
57,1-35E,26E,main,back,1,4155,13.765096538,100.53906206,อนุสาวรีย์ชัยสมรภูมิ (เกาะดินแดง),Victory Monument (Din Daeng),4156
57,1-35E,26E,main,back,2,4156,13.7641730616197,100.538548058925,อนุสาวรีย์ชัยสมรภูมิ (เกาะพญาไท),Victory Monument (Phaya Thai),3420
57,1-35E,26E,main,back,3,3420,13.76375373,100.5406369,สวนสันติภาพ,Santiphap Park,3442
57,1-35E,26E,main,back,4,3442,13.76385264,100.5409513,ตรงข้ามสวนสันติภาพ,Santiphap Park (Opposite),3419
57,1-35E,26E,main,back,5,3419,13.76337829,100.5458408,ตรงข้ามสำนักงานปปส,Opposite the Office,3444
57,1-35E,26E,main,back,6,3444,13.76246339,100.5511271,แฟลตดินแดงป้าย2,Din Daeng Flat Label 2,3417
57,1-35E,26E,main,back,7,3417,13.760926,100.5537569,แฟลตดินแดง(ป้าย1),Dindaeng Housing (Stop.1),2689
57,1-35E,26E,main,back,8,2689,13.75563223,100.5739292,สำนักผังเมือง,Department of Townand Country Planning,2691
57,1-35E,26E,main,back,9,2691,13.75533626,100.5780348,การรถไฟฟ้าขนส่งมวลชนแห่งประเทศไทย(รฟม.),Mass Rapid Transit Authority of Thailand,2692
57,1-35E,26E,main,back,10,2692,13.75275961,100.5904515,วิลล่าคาเฟ่ พระราม 9 ซอย 19,Ville Cafe,1712
57,1-35E,26E,main,back,11,1712,13.76363659,100.5997095,สภ.วังทองหลาง,Wang Thonglang Police Station,1350
57,1-35E,26E,main,back,12,1350,13.7690095289084,100.604058894524,ร้านอาหารบ้านต้นซุง,Baan Ton Sung Restaurant,1710
57,1-35E,26E,main,back,13,1710,13.768797,100.603923,SC ปาร์ค,SC Park,1725
57,1-35E,26E,main,back,14,1725,13.8111180578499,100.619792542176,The Crystal,The Crystal,1729
57,1-35E,26E,main,back,15,1729,13.83346525,100.6306182,ตรงข้ามหมู่บ้านแกรนด์คริสตัล,Opposite Muban Grand Crystal,1697
57,1-35E,26E,main,back,16,1697,13.83669309,100.6330267,สยาม เจมส์ เฮอริเทจ,Siam Gems Heritage,1695
57,1-35E,26E,main,back,17,1695,13.8438849561635,100.636710771298,หมู่บ้านมณียาซอย 4,Mani ya Village Soi 4,1731
57,1-35E,26E,main,back,18,1731,13.84382692,100.6359669,รามอินทรา 34 แยก19/1,Ramintra 34 yaek19/1,1608
57,1-35E,26E,main,back,19,1608,13.8518601784112,100.638374398245,วัชรพล(กม.5),Watchara Phon (Km.5),1622
57,1-35E,26E,main,back,20,1622,13.85138413,100.6385324,รามอินทรา กม.5 ขาเข้า,Ramintra Km.5 Inbound,4231
57,1-35E,26E,main,back,21,4231,13.8488252834199,100.64398568,หมู่บ้านสวัสดิการทหาร,Military Welfare Village,3214
57,1-35E,26E,main,back,22,3214,13.83438178,100.6667172,โรงพยาบาลสินแพทย์,Synphaet Hospital,1262
57,1-35E,26E,main,back,23,1262,13.82947948,100.6717093,ทางต่างระดับรามอินทรา ,Ramintra Interchange,4675
57,1-35E,26E,main,back,26,4675,13.8283833102521,100.675075841682,แยกถนนเลียบคลองสอง,Khlong Song Intersection,4271
57,1-35E,26E,main,back,27,4271,13.8247581152508,100.677359008492,แฟชั่นไอส์แลนด์,Fashion Island,3227
57,1-35E,26E,main,back,28,3227,13.81598577,100.6864397,โรงพยาบาลนพรัตน์,Noppharat Hospital,1261
57,1-35E,26E,main,back,29,1261,13.812614653,100.69157308,วิทยาลัยทักษิณา(ไทยสุริยะเก่า),Thaksina Business Technological College (Thai Suriya),2016
57,1-35E,26E,main,back,30,2016,13.8129314001794,100.691602664488,ภัตตาคารชายทะเลจันทร์เพ็ญสาขารามอินทรา,Chandrphen Restaurant (Ram Inthra),2032
57,1-35E,26E,main,back,31,2032,13.8125551254748,100.713722924351,ตรงข้าม รร.เศรษฐบุตรบำเพ็ญ,Setthabut Bamphen School (Opposite),2474
57,1-35E,26E,main,back,32,2474,13.81282826,100.7193561,แยกมีนบุรี ซอยตะเกียง,Min Buri Intersection,4670
57,1-35E,26E,main,back,33,4670,13.8123822220796,100.725664522386,ตลาดเก่ามีนบุรี,Minburi old market,4672
57,1-35E,26E,main,back,34,4672,13.8127209671307,100.725504868492,จตุจักร 2 มีนบุรี,Chatuchak 2 Minburi,4140
58,1-36,26,main,go,0,4140,13.813025527,100.72820742,ตลาดมีนบุรี(ตลาดสด),Minburi Market (Fresh Market),3226
58,1-36,26,main,go,1,3226,13.81526851,100.6867154,ตรงข้ามโรงพยาบาลนพรัตน์,Noppharat Hospital (Opposite),3227
58,1-36,26,main,go,2,3227,13.81598577,100.6864397,โรงพยาบาลนพรัตน์,Noppharat Hospital,3229
58,1-36,26,main,go,3,3229,13.82130347,100.6802657,รามอินทรา กม. 10 ขาเข้า,Ram Inthra Km. 10 inbound,3215
58,1-36,26,main,go,4,3215,13.83201057,100.6691115,ซอยชื่นกมล ตรงข้ามศูนย์โตโยต้าชัวร์,Soi chuen kamon,1611
58,1-36,26,main,go,5,1611,13.841891511416,100.656747305439,ซอยรามอินทรา 69,Soi Ramintra 69,1618
58,1-36,26,main,go,6,1618,13.8414963440834,100.65675371021,ตรงข้ามซอยรามอินทรา 69,Soi Ramintra 69 (Opposite),1621
58,1-36,26,main,go,7,1621,13.8468328100286,100.64692799021,ปั้มน้ำมันบางจาก กม.6 (รามอินทรา),Bangchak Station Km 6,1598
58,1-36,26,main,go,8,1598,13.8699541469327,100.604770551088,ซอยรามอินทรา 5,Soi Ramintra 5,1631
58,1-36,26,main,go,9,1631,13.8696597469996,100.604660308912,ศูนย์พัฒนากีฬากองทัพบก สนามกอล์,RTA Sports Center (Golf Court),3881
58,1-36,26,main,go,11,3881,13.87413505,100.5975955,สถานีตำรวจบางเขน,Police Station Bangkhen,3886
58,1-36,26,main,go,12,3886,13.85980715,100.5875686,กองพันทหารราบที่ 1,1st Infantry Battalion,3911
58,1-36,26,main,go,13,3911,13.860185513879,100.587473784351,หมู่บ้านถาวรวิลล่าบางบัว 1,Thaworn Villa Bang Bua 1 Village 1,3889
58,1-36,26,main,go,14,3889,13.85207622,100.5830043,โรงเรียนสารวิทยา,Sarawittaya School,3805
58,1-36,26,main,go,15,3805,13.83010177,100.570176,BTS รัชโยธิน ทางออก 4,BTS Ratchayothin Exit 4,3826
58,1-36,26,main,go,16,3826,13.830399,100.5699898,เมเจอร์รัชโยธิน,Major Ratchayothin,3807
58,1-36,26,main,go,17,3807,13.8242246,100.5666606,ตึกช้าง,Elephant Building,3810
58,1-36,26,main,go,18,3810,13.81795042,100.562957,เทสโก้โลตัสลาดพร้าว,Tesco Lotus Lat Phrao,2630
58,1-36,26,main,go,19,2630,13.79747591,100.545702,ตรงข้ามสวนจตุจักร จุดที่ 1,"Opposite Chatuchak Park, Point 1",2631
58,1-36,26,main,go,20,2631,13.79751859,100.5424596,ตลาดดอกไม้จตุจักร,Chatuchak Flower Market,2632
58,1-36,26,main,go,21,2632,13.79785122,100.5426541,ย่านพหลโยธิน(ถนนกำแพงเพชรขาเข้า),Phahon Yothin,2631
58,1-36,26,main,go,22,2631,13.79751859,100.5424596,ตลาดดอกไม้จตุจักร,Chatuchak Flower Market,2632
59,1-36,26,main,back,0,5188,13.808054444,100.5481651,กฟน.จตุจักร,MEA Chatuchak,3815
59,1-36,26,main,back,1,3815,13.80019156,100.5525562,กรมการขนส่งทางบก,Department of Land Transport,3814
59,1-36,26,main,back,2,3814,13.80226889,100.5537518,หมอชิต,Morchit,4613
59,1-36,26,main,back,3,4613,13.802678363,100.55348542,สวนจตุจักร,Chatuchak Park,3881
59,1-36,26,main,back,4,3881,13.87413505,100.5975955,สถานีตำรวจบางเขน,Police Station Bangkhen,4675
59,1-36,26,main,back,5,4675,13.8283833102521,100.675075841682,แยกถนนเลียบคลองสอง,Khlong Song Intersection,4271
59,1-36,26,main,back,6,4271,13.8247581152508,100.677359008492,แฟชั่นไอส์แลนด์,Fashion Island,1261
59,1-36,26,main,back,7,1261,13.812614653,100.69157308,วิทยาลัยทักษิณา(ไทยสุริยะเก่า),Thaksina Business Technological College (Thai Suriya),2016
59,1-36,26,main,back,8,2016,13.8129314001794,100.691602664488,ภัตตาคารชายทะเลจันทร์เพ็ญสาขารามอินทรา,Chandrphen Restaurant (Ram Inthra),2017
59,1-36,26,main,back,9,2017,13.81293935,100.6944718,ซอยรามอินทรา 107,Soi Ramintra 107,2036
59,1-36,26,main,back,10,2036,13.81261718,100.69494876,ซอยรามอินทรา74 หมู่บ้านรังสิยา,Ramintra Soi 74,2474
59,1-36,26,main,back,11,2474,13.81282826,100.7193561,แยกมีนบุรี ซอยตะเกียง,Min Buri Intersection,4140
60,1-37,27,main,go,0,4140,13.813025527,100.72820742,ตลาดมีนบุรี(ตลาดสด),Minburi Market (Fresh Market),4670
60,1-37,27,main,go,1,4670,13.8123822220796,100.725664522386,ตลาดเก่ามีนบุรี,Minburi old market,4672
60,1-37,27,main,go,2,4672,13.8127209671307,100.725504868492,จตุจักร 2 มีนบุรี,Chatuchak 2 Minburi,2525
60,1-37,27,main,go,3,2525,13.81061339,100.7167963,โรงพยาบาลเสรีรักษ์,Seri Rak Hospital,2472
60,1-37,27,main,go,4,2472,13.80760396,100.7149443,แฟลตอินโดไทย,Thai flaw,1888
60,1-37,27,main,go,5,1888,13.803615948548,100.710150393053,ซอยเสรีไทย 62 ตรงข้ามธนาคารกรุงไทยสาขาบางชัน,Soi Serithai 62,3994
60,1-37,27,main,go,6,3994,13.786056025981,100.675996965649,ตรงข้ามหมู่บ้านสหกรณ์,Sahakon Village (Opposite),4111
60,1-37,27,main,go,7,4111,13.786205460686,100.675816025859,หมู่บ้านสหกรณ์,Cooperative Village,3996
60,1-37,27,main,go,8,3996,13.782778233,100.6723893,สุเหร่าคลองกุ่ม,Khlong Kum Mosque,3998
60,1-37,27,main,go,9,3998,13.7796485450743,100.66776978628,คลองบางเตย(ขาเข้า),ฺBang Toei Canal,4001
60,1-37,27,main,go,10,4001,13.7751237525474,100.658732150667,ซอยเสรีไทย 4,Soi Serithai 4,4104
60,1-37,27,main,go,11,4104,13.7755140992158,100.658920379753,ซอยรอดอนันต์ 4,Soi Rot Anan 4,1676
60,1-37,27,main,go,12,1676,13.7719812197507,100.654145638245,สถาบันนิด้า มหาวิทยาลัยนิด้า,NIDA Institution,1646
60,1-37,27,main,go,13,1646,13.7717234832051,100.653663705229,แยกนิด้า(ขาเข้า),NIDA Intersection,1676
60,1-37,27,main,go,14,1676,13.7719812197507,100.654145638245,สถาบันนิด้า มหาวิทยาลัยนิด้า,NIDA Institution,1643
60,1-37,27,main,go,15,1643,13.76852514,100.6510937,เคหะคลองจั่นแฟลต 28,Khlong Chan Housing Flat 28,1642
60,1-37,27,main,go,16,1642,13.76716534,100.6494249,ซอยเสรีไทย 3,Soi Serithai 3,1679
60,1-37,27,main,go,17,1679,13.766474,100.649044,แยกบางกะปิ,Bang Kapi Intersection,3256
60,1-37,27,main,go,18,3256,13.76605591,100.6465088,ตรงข้ามตลาดบางกะปิ,Opposite Bang Kapi Market,3558
60,1-37,27,main,go,19,3558,13.7709253,100.6367454,เวชธานี,Wet Thani,3563
60,1-37,27,main,go,20,3563,13.77062311,100.6367722,ลาดพร้าว 136,Lat Phrao 136,3545
60,1-37,27,main,go,21,3545,13.78880789,100.6047517,ซอยลาดพร้าว 67 ตรงข้ามซอยลาดพร้าว 80,Lat Phrao Soi 67,3542
60,1-37,27,main,go,22,3542,13.79287959,100.5974092,ตลาดโชคชัย 4,Chokchai Market 4,2227
60,1-37,27,main,go,23,2227,13.7981322890611,100.58757738288,โรงเรียนพิบูลย์อุปถัมภ์,Pibool Uppatham School,2229
60,1-37,27,main,go,24,2229,13.8019992422876,100.580628633226,ซอยลาดพร้าว 42,Soi Lat Phrao 42,3350
60,1-37,27,main,go,25,3350,13.7894592,100.5625272,แยกสุทธิสาร ฝั่งอินทามระ ขาออก,"Sutthisan junction, Inthamara departure",780
60,1-37,27,main,go,26,780,13.7883561210625,100.561669496316,แยกสุทธิสาร(ดับเพลิง),Sutthisan Intersection (Fire Station),4192
60,1-37,27,main,go,27,4192,13.7716924785902,100.552662247924,สวนป่าวิภาวดี,Vibhavadi Forest Park,3420
60,1-37,27,main,go,28,3420,13.76375373,100.5406369,สวนสันติภาพ,Santiphap Park,3442
60,1-37,27,main,go,29,3442,13.76385264,100.5409513,ตรงข้ามสวนสันติภาพ,Santiphap Park (Opposite),4155
60,1-37,27,main,go,30,4155,13.765096538,100.53906206,อนุสาวรีย์ชัยสมรภูมิ (เกาะดินแดง),Victory Monument (Din Daeng),4156
60,1-37,27,main,go,32,4156,13.7641730616197,100.538548058925,อนุสาวรีย์ชัยสมรภูมิ (เกาะพญาไท),Victory Monument (Phaya Thai),4157
60,1-37,27,main,go,33,4157,13.764621093,100.53744871,อนุสาวรีย์ชัยสมรภูมิ (เกาะราชวิถี),Victory Monument (Ratchawithi),4155
61,1-37,27,main,back,0,4155,13.765096538,100.53906206,อนุสาวรีย์ชัยสมรภูมิ (เกาะดินแดง),Victory Monument (Din Daeng),3420
61,1-37,27,main,back,1,3420,13.76375373,100.5406369,สวนสันติภาพ,Santiphap Park,3442
61,1-37,27,main,back,2,3442,13.76385264,100.5409513,ตรงข้ามสวนสันติภาพ,Santiphap Park (Opposite),3898
61,1-37,27,main,back,3,3898,13.7769556078064,100.554670857614,มหาลัยหอการค้าไทย,University of the Thai Chamber of Commerce,3349
61,1-37,27,main,back,4,3349,13.78926609,100.5607342,หลังแยกสุทธิสาร ฝั่งอินทามระ ขาเข้า,"After the Sutthisan intersection, Inthamara inbound",3380
61,1-37,27,main,back,5,3380,13.78919864,100.5608093,หลังแยกสุทธิสาร ฝั่งอินทามระ ขาเข้า,"After the Sutthisan intersection, Inthamara inbound",3902
61,1-37,27,main,back,6,3902,13.7907441224526,100.561227336316,แยกสุทธิสาร(ถนนวิภาวดีรังสิตขาออก),Sutthisan Intersection,3905
61,1-37,27,main,back,7,3905,13.810159635,100.55919672,มหาวิทยาลัยเซนต์จอห์น,St. John University,4180
61,1-37,27,main,back,8,4180,13.8142524283871,100.558848506069,สวนวชิรเบญจทัศสวนรถไฟ,"Wachira Ben Park, Railway",2240
61,1-37,27,main,back,9,2240,13.8130052808402,100.560998151298,ปากทางลาดพร้าว-วิภาวดีรังสิต,Lat phrao - Wiphawadi Rangsit,2236
61,1-37,27,main,back,10,2236,13.8092756787004,100.567663426069,ซอยลาดพร้าว 12 ตรงข้ามบิ๊กซีลาดพร้าว,Soi Lat Phrao 12,2663
61,1-37,27,main,back,11,2663,13.80559424,100.5750901,แยกห้วยขวาง,Huai Khwang Intersection,2228
61,1-37,27,main,back,12,2228,13.8002912711393,100.583693757998,ซอยภาวนา,Soi Phawana,3536
61,1-37,27,main,back,13,3536,13.80063179,100.583596,ซอยภาวนาลาดพร้าว 41,Soi Phawana,3544
61,1-37,27,main,back,14,3544,13.7899081,100.6028172,ไปรษณีย์ลาดพร้าว,Post Office Lat Phrao,3547
61,1-37,27,main,back,15,3547,13.78552754,100.610583,ซอยลาดพร้าว 79 ตรงข้ามแมงป่อง,Lat Phrao Soi 79,3575
61,1-37,27,main,back,16,3575,13.78532927,100.6104638,ซอยลาดพร้าว 92,Lat Phrao Soi 92,1679
61,1-37,27,main,back,17,1679,13.766474,100.649044,แยกบางกะปิ,Bang Kapi Intersection,1642
61,1-37,27,main,back,18,1642,13.76716534,100.6494249,ซอยเสรีไทย 3,Soi Serithai 3,1645
61,1-37,27,main,back,19,1645,13.770656427,100.65298599,มหาวิทยาลัยนิด้า,NIDA Univercity,4109
61,1-37,27,main,back,20,4109,13.782302615,100.67208512,ตรงข้ามสุเหร่าคลองกุ่ม,Khlong Kum Mosque (Opposite),4110
61,1-37,27,main,back,21,4110,13.7844296307408,100.674451264771,ตรงข้ามโลตัสเสรีไทย,Opposite Lotus Seri Thai,2464
61,1-37,27,main,back,22,2464,13.78855206,100.6779938,ตรงข้ามนวธานี,Nawa Thani (Opposite),2466
61,1-37,27,main,back,23,2466,13.79280244,100.6849549,หมู่บ้านเฟื่องฟ้าวิลล่า,Fueng Fah Villa Village,2535
61,1-37,27,main,back,24,2535,13.79248972,100.6850232,เรือนทองนิเวศน์,Ruean Thong Niwet,1892
61,1-37,27,main,back,25,1892,13.8037649547093,100.709897075649,เคหะชุมชนบางชัน,Bangchan Community Houding,2526
61,1-37,27,main,back,26,2526,13.80823597,100.7153445,ซอยเสรีไทย 68 แยก 1,Soi Serithai 68 Yaek 1,2474
61,1-37,27,main,back,27,2474,13.81282826,100.7193561,แยกมีนบุรี ซอยตะเกียง,Min Buri Intersection,4140
62,1-38,60,main,go,0,3221,13.80620986,100.6915553,สวนสยาม,Siam Park,3218
62,1-38,60,main,go,1,3218,13.81331471,100.6873623,อโมรินี่ รพ.นพรัตน์,Noppharat Hospital,3217
62,1-38,60,main,go,2,3217,13.81889786,100.682839,ซอยรามอินทรา 66,Soi Ram Inthra 66,3228
62,1-38,60,main,go,3,3228,13.81895314,100.6833203,ซอยรามอินทรา 103,Soi Ram Inthra 103,3240
62,1-38,60,main,go,4,3240,13.8080643,100.6494492,หมู่บ้านธนะสิน(นวมินทร์ 68),Thanasin Village,5325
62,1-38,60,main,go,5,5325,13.802929725,100.64795573,วัดบางเตย,Wat Bang Toei,984
62,1-38,60,main,go,6,984,13.78087966,100.65027086,ตรงข้ามซอยศรีบูรพา 8,Soi Sri Burapha 8 (Opposite),1676
62,1-38,60,main,go,8,1676,13.7719812197507,100.654145638245,สถาบันนิด้า มหาวิทยาลัยนิด้า,NIDA Institution,1646
62,1-38,60,main,go,9,1646,13.7717234832051,100.653663705229,แยกนิด้า(ขาเข้า),NIDA Intersection,1642
62,1-38,60,main,go,10,1642,13.76716534,100.6494249,ซอยเสรีไทย 3,Soi Serithai 3,1679
62,1-38,60,main,go,11,1679,13.766474,100.649044,แยกบางกะปิ,Bang Kapi Intersection,4091
62,1-38,60,main,go,12,4091,13.759570523,100.61814146,ตรงข้ามมหาวิทยาลัยรามคำแหง,Ramkhamhaeng Universitty (Opposite),369
62,1-38,60,main,go,13,369,13.758973753,100.61699747,ซอยรามคำแหง 43/1,Ramkhamhaeng Road Soi 43/1,4083
62,1-38,60,main,go,15,4083,13.7423208959876,100.601379289913,ยูเอ็มทาวน์เวอร์คลองตัน,UM Tower Khlongton,4562
62,1-38,60,main,go,16,4562,13.747319331813,100.573970160667,บริษัทอิตาเลียน-ไทย,ITD,4314
62,1-38,60,main,go,17,4314,13.749171868,100.55436809,แยกมิตรสัมพันธ์(ถนนสุขุมวิท 3),Mitsamphan Intersection,2909
62,1-38,60,main,go,18,2909,13.74966871,100.5470736,ตรงข้ามอาคารวานิช,Opposite Vanish Building,2908
62,1-38,60,main,go,19,2908,13.74960256,100.5441393,พาลาเดียมประตูน้ำ,Pratunam Prathan,2907
62,1-38,60,main,go,20,2907,13.75143649,100.5371975,ตรงข้ามพันธุ์ทิพย์ประตูน้ำ,Pantip Pratunam (Opposite),1576
62,1-38,60,main,go,21,1576,13.756491965,100.50729393,ตรงข้ามการบินไทยหลานหลวง,Thai Airways Larnluang (Opposite),2369
62,1-38,60,main,go,22,2369,13.757294016,100.49792069,แยกคอกวัวตรงข้ามกองสลาก,Khok Wua Intersection,2370
62,1-38,60,main,go,23,2370,13.7576111293579,100.496367368282,ตรงข้ามกองสลาก,The Government Lottery Office (opposite),4248
62,1-38,60,main,go,24,4248,13.753732919,100.49392099,สนามหลวง(ศาลหลักเมือง),Sanam Luang (City Pillar Shrine),3623
62,1-38,60,main,go,25,3623,13.74725404,100.4950713,หน่วยบัญชาการรักษาดินแดน,Territorial Defense Command,4815
62,1-38,60,main,go,26,4815,13.745525023,100.49530268,พระพิพิธ,Phra Phiphit,1424
62,1-38,60,main,go,28,1424,13.743923252,100.49625625,ปากคลองตลาด(คลองหลอด),Pak Khlong Market (Khlong Luang),3433
63,1-38,60,main,back,0,4669,13.744370344,100.49462947,โรงเรียนวัดราชบพิธ(ท่าปลายทางปากคลองตลาด),Wat Ratchabopit School,4248
63,1-38,60,main,back,1,4248,13.753732919,100.49392099,สนามหลวง(ศาลหลักเมือง),Sanam Luang (City Pillar Shrine),2370
63,1-38,60,main,back,2,2370,13.7576111293579,100.496367368282,ตรงข้ามกองสลาก,The Government Lottery Office (opposite),2365
63,1-38,60,main,back,3,2365,13.757867825,100.49701588,กองสลาก,The Government Lottery Office,2370
63,1-38,60,main,back,4,2370,13.7576111293579,100.496367368282,ตรงข้ามกองสลาก,The Government Lottery Office (opposite),2048
63,1-38,60,main,back,5,2048,13.756809199,100.50684075,แยกผ่านฟ้า(ขาออก),Phan Fa Intersection,2894
63,1-38,60,main,back,6,2894,13.74967818,100.5558012,อาคารธนภูมิ,Thanapoom Building,2914
63,1-38,60,main,back,7,2914,13.74855073,100.5673943,โรงแรมแลงคาสเตอร์,Lan Castster Hotel,2915
63,1-38,60,main,back,8,2915,13.74807218,100.5705123,ตรงข้ามโรงแรมอวานีเอเทรียม,Opposite Avani Etriam Hotel,2921
63,1-38,60,main,back,9,2921,13.74151841,100.5995834,ตลาดคลองตัน(ขาออก),Klongtan Market (Outbound),4135
63,1-38,60,main,back,10,4135,13.7413112266671,100.599413408311,ตลาดคลองตัน(เพชรบุรี42),Klong Tan Market,4083
63,1-38,60,main,back,11,4083,13.7423208959876,100.601379289913,ยูเอ็มทาวน์เวอร์คลองตัน,UM Tower Khlongton,4019
